Station,Latitude,Longitude,OS Grid Ref
Abbey_Wood,51.4910,0.1214,TQ473789
Aber,51.5749,-3.22987,ST148869
Abercynon,51.645,-3.327,ST082948
Aberdare,51.7145,-3.4420,SO004027
Aberdeen,57.1436,-2.0985,NJ941058
Aberdour,56.0549,-3.3005,NT190854
Aberdovey,52.544,-4.057,SN606960
Abererch,52.898,-4.375,SH403360
Abergavenny,51.8167,-3.0088,SO305136
Abergele_and_Pensarn,53.295,-3.583,SH946787
Aberystwyth,52.4139,-4.08157,SN585815
Accrington,53.753,-2.370,SD757285
Achanalt,57.6096,-4.9135,NH260614
Achnasheen,57.5793,-5.0723,NH164585
Achnashellach,57.4821,-5.3331,NH002484
Acklington,55.307,-1.652,NU222015
Acle,52.63444,1.54361,TG398100
Acocks_Green,52.449,-1.818,SP123835
Acton_Bridge,53.2664,-2.6029,SJ598745
Acton_Central,51.5087,-0.2630,TQ206802
Acton_Main_Line,51.5171,-0.2668,
Adderley_Park,52.483,-1.855,SP098872
Addiewell,55.8434,-3.6064,NS995623
Addlestone,51.373,-0.484,TQ055648
Adisham,51.2409,1.1989,TR233539
Adlington_(Cheshire),53.320,-2.134,SJ911803
Adlington_(Lancashire),53.613,-2.603,SD602131
Adwick,53.5719,-1.1797,SE544086
Aigburth,53.3647,-2.9268,SJ384857
Ainsdale,53.6019,-3.0428,SD311122
Aintree,53.4740,-2.9563,SJ366978
Airbles,55.782331,-3.994509,NS750561
Airdrie,55.8640,-3.9826,NS760652
Albany_Park,51.4354,0.1257,
Albrighton,52.63778,-2.2683,SJ818045
Alderley_Edge,53.304,-2.237,SJ843785
Aldermaston,51.40222,-1.13667,SU601673
Aldershot,51.24639,-0.76000,SU866504
Aldrington,50.83639,-0.18167,TQ281056
Alexandra_Palace,51.5983,-0.1197,
Alexandra_Parade,55.8637,-4.2107,NS617655
Alexandria,55.9853,-4.5773,NS393799
Alfreton,53.100,-1.370,SK422561
Alloa,56.1179,-3.7883,NS888931
Allens_West,54.524,-1.363,NZ413145
Alness,57.6944,-4.2497,NH659694
Alnmouth,55.392,-1.636,NU230110
Alresford_(Essex),51.85389,0.99694,TM064215
Alresford_(Hampshire),51.0878,-1.1596,SU587324
Alsager,53.0928,-2.2981,SJ800551
Althorne,51.648,0.752,TQ905979
Althorpe,53.58557,-0.73300,SE839106
Altnabreac,58.3882,-3.7059,ND003456
Alton,51.15200,-0.96766,SU723397
Altrincham,53.3875,-2.3472,SJ770879
Alvechurch,52.346,-1.968,SP022719
Ambergate,53.061,-1.481,SK348516
Amberley,50.897,-0.542,TQ026118
Ammanford,51.7951,-3.9959,SN623126
Ancaster,52.98772,-0.53594,SK983443
Anderston,55.8598,-4.2703,NS579653
Andover,51.212,-1.492,SU355459
Anerley,51.4147,-0.067,
Angel_Road,51.6118,-0.0495,TQ351922
Angmering,50.81639,-0.48917,TQ065029
Annan,54.9835,-3.2629,NY193661
Anniesland,55.8898,-4.3217,NS548687
Ansdell_and_Fairhaven,53.7416,-2.9934,SD345277
Antrim,54.7182,-6.2115,
Appledore_(Kent),51.0330,0.8164,TQ975297
Appleford,51.640,-1.242,SU525936
Appley_Bridge,53.579,-2.719,SD524093
Apsley,51.733,-0.463,TL062048
Arbroath,56.5594,-2.5892,NO638409
Ardgay,57.8816,-4.3622,NH600904
Ardlui,56.3019,-4.7217,NN316155
Ardrossan_Harbour,55.6396,-4.8205,NS224420
Ardrossan_South_Beach,55.6410,-4.8001,NS238421
Ardrossan_Town,55.6402,-4.8122,NS230420
Ardwick,53.4711,-2.2131,SJ858972
Argyle_Street,55.857,-4.251,NS592649
Arisaig,56.9130,-5.8395,NM663867
Arlesey,52.026,-0.266,TL190378
Armathwaite,54.809,-2.772,NY504463
Arnside,54.202,-2.828,SD461788
Arram,53.884000,-0.425000,TA035442
Arrochar_and_Tarbet,56.2033,-4.7232,NN311045
Arundel,50.848,-0.546,TQ024063
Ascot,51.406,-0.676,SU921682
Ascott-under-Wychwood,51.867,-1.564,SP301188
Ash,51.250,-0.713,SU899508
Ash_Vale,51.272,-0.722,SU892533
Ashburys,53.471806,-2.19500,SJ871972
Ashchurch_for_Tewkesbury,51.999,-2.109,SO926333
Ashfield,55.8888,-4.2484,NS595684
Ashford_(Surrey),51.437,-0.468,TQ065719
Ashford_International,51.1436,0.87448,TR011421
Ashley,53.356,-2.341,SJ773843
Ashtead,51.318,-0.308,TQ180589
Ashton-under-Lyne,53.4913,-2.0943,SJ938993
Ashurst,51.129,0.153,TQ507387
Ashurst_New_Forest,50.890,-1.527,SU333101
Ashwell_and_Morden,52.031,-0.110,TL298386
Askam,54.189,-3.205,SD215777
Aslockton,52.95167,-0.89861,SK705401
Aspatria,54.759,-3.332,NY143412
Aspley_Guise,52.021,-0.632,SP939367
Aston,52.504,-1.872,SP087896
Atherstone,52.579,1.553,SP304979
Atherton,53.529,-2.479,SD684037
Attadale,57.3945,-5.4553,NG924390
Attenborough,52.5424,1.1353,SK518346
Attleborough,52.51428,1.02119,TM051950
Auchinleck,55.4698,-4.2955,NS549219
Audley_End,52.0045,0.2073,TL516363
Aughton_Park,53.5542,-2.8953,SD408067
Aviemore,57.1886,-3.8288,NH895123
Avoncliff,51.3395,-2.2821,ST804600
Avonmouth,51.5001,-2.6992,ST515781
Axminster,50.779,-3.005,SY292982
Aylesbury,51.813903,-0.815102,SP817134
Aylesbury_Vale_Parkway,51.8319,-0.8612,SP786153
Aylesford,51.301338,0.466012,TQ720586
Aylesham,51.227367,1.209483,TR241524
Ayr,55.4583,-4.6258,NS340214
Bache,53.208,-2.8914,SJ405683
Baglan,51.61444,-3.80944,SS749923
Bagshot,51.364,-0.689,SU914636
Baildon,53.850,-1.754,SE162393
Baillieston,55.8445,-4.1137,NS677632
Balcombe,51.05611,-0.13750,TQ306301
Baldock,51.993,-0.188,TL245342
Balham,51.4426,-0.152,
Balloch,56.0021,-4.5831,NS389818
Ballycarry,54.777,-5.726,
Ballydugan_Halt,54.326,-5.722,
Ballymena,54.86417,-6.28472,
Ballymoney,55.06667,-6.51389,
Balmoral,54.5688,-5.9682,
Balmossie,56.4747,-2.8384,NO484317
Bamber_Bridge,53.727,-2.661,SD564258
Bamford,53.3389,-1.6890,SK208825
Banavie,56.8439,-5.0960,NN112767
Banbury,52.060,-1.328,SP462404
Bangor_(Co_Down),54.6585,-5.6725,
Bangor_(Gwynedd),53.222,-4.136,SH575716
Bangor_West,54.6595,-5.6929,
Bank_Hall,53.4376,-2.9875,SJ344939
Banstead,51.3292,-0.2132,
Barassie,55.5614,-4.6514,NS328328
Bardon_Mill,54.974,-2.346,NY778645
Bare_Lane,54.075,-2.836,SD454646
Bargeddie,55.8513,-4.0738,NS702639
Bargoed,51.6928,-3.2299,SO150000
Barlaston,52.943,-2.168,SJ888383
Barming,51.285,0.479,TQ729568
Barmouth,52.723,-4.057,SH612158
Barnehurst,51.4648,0.1595,TQ501762
Barnes,51.4671,-0.242,
Barnes_Bridge,51.4722,-0.2523,
Barnetby,53.57503,-0.40990,TA053098
Barnham,50.83111,-0.64056,SU958043
Barnhill,55.8778,-4.2235,NS610671
Barnstaple,51.074,-4.063,SS555325
Barnt_Green,52.3607,-1.9926,SP006736
Barrhead,55.8040,-4.3971,NS498593
Barrhill,55.0975,-4.7822,NX225816
Barrow_Haven,53.697426,-0.392933,TA062235
Barrow-in-Furness,54.119,-3.226,SD199699
Barrow-upon-Soar,52.7494111,-1.1455389,SK577172
Barry,51.3968,-3.2847,ST107672
Barry_Docks,51.4024,-3.2615,ST123677
Barry_Island,51.3924,-3.2736,ST114666
Barry_Links,56.4932,-2.7456,NO542336
Barton-on-Humber,53.689,-0.443,TA029225
Basildon,51.5679,0.4566,TQ703883
Basingstoke,51.2683,-1.0878,SU637525
Bat_and_Ball,51.2899,0.1942,TQ530568
Bath_Spa,51.3775,-2.3564,ST752643
Bathgate,55.8971,-3.6362,NS981681
Batley,53.709910,-1.623020,SE249237
Battersby,54.457,-1.094,NZ588072
Battersea_Park,51.4779,-0.1477,
Battle,50.913,0.495,TQ754155
Battlesbridge,51.625,0.566,TQ776949
Bayford,51.758,-0.096,TL315083
Beaconsfield,51.611,-0.644,SU940911
Bearley,52.2450,-1.7497,SP171607
Bearsden,55.9170,-4.3324,NS543717
Bearsted,51.276,0.578,TQ798561
Beasdale,56.9001,-5.7640,NM709850
Beaulieu_Road,50.8544,-1.5047,SU349062
Beauly,57.4783,-4.4699,NH520457
Bebington,53.358,-3.004,SJ333850
Beccles,52.4586,1.5697,TM426904
Beckenham_Hill,51.4246,-0.0161,
Bedford,52.1364,-0.4794,TL041497
Bedford_St_Johns,52.1294,-0.4677,TL049490
Bedhampton,50.85361,-0.99694,SU707065
Bedminster,51.44030,-2.59440,ST589715
Bedworth,52.479,-1.467,SP362869
Bedwyn,51.380,-1.599,SU279645
Beeston,52.92056,-1.20806,SK533362
Bekesbourne,51.261,1.137,TR189560
Belfast_Central,54.5953,-5.9172,
Belfast_Great_Victoria_Street,54.5942,-5.9362,
Bellarena,55.12667,-6.95167,
Belle_Vue,53.46194,-2.18028,SJ881961
Bellgrove,55.8567,-4.2240,NS608648
Bellingham,51.4328,-0.0194,
Bellshill,55.8171,-4.0243,NS732600
Belper,53.025,-1.483,SK348475
Beltring,51.204587,0.405887,TQ680477
Belvedere,51.4927,0.1524,
Bempton,54.12780,-0.17920,TA189717
Ben_Rhydding,53.9257,-1.7973,SE134477
Benfleet,51.544,0.562,TQ777859
Bentham,54.1155,-2.5105,SD667689
Bentley_(Hampshire),51.181,-0.868,SU792430
Bentley_(South_Yorkshire),53.5440,-1.1510,SE563055
Bere_Alston,50.4863,-4.19982,SX440674
Bere_Ferrers,50.4514,-4.18125,SX452635
Berkhamsted,51.763,-0.562,SP993081
Berkswell,52.396,-1.643,SP244776
Berney_Arms,52.59000,1.63083,TG460053
Berry_Brow,53.6210,-1.7935,SE137138
Berrylands,51.3988,-0.2803,
Berwick_(Sussex),50.840,0.166,TQ525067
Berwick-upon-Tweed,55.775,-2.011,NT994534
Bescar_Lane,53.624,-2.915,SD396145
Bescot_Stadium,52.562,-1.991,SP007961
Betchworth,51.248,-0.267,TQ210512
Bethnal_Green,51.523,-0.059,
Betws-y-Coed,53.092,-3.801,SH795565
Beverley,53.842000,-0.421000,TA038396
Bexhill,50.841,0.477,TQ743075
Bexley,51.4403,0.1479,
Bexleyheath,51.4635,0.1338,
Bicester_North,51.9035,-1.1500,SP585231
Bicester_Town,51.8931,-1.1485,SP586219
Bickley,51.3995,0.0441,
Bidston,53.409,-3.079,SJ283908
Biggleswade,52.085,-0.261,TL192443
Bilbrook,52.624,-2.186,SJ875028
Billericay,51.629,0.419,TQ674949
Billingham,54.606,-1.279,NZ466236
Billingshurst,51.015,-0.450,TQ088251
Bingham,52.95417,-0.95139,SK705401
Bingley,53.8487,-1.8372,SE108391
Birchgrove,51.5213,-3.2027,ST166809
Birchington-on-Sea,51.377,1.301,TR298694
Birchwood,53.4124,-2.5253,SJ651908
Birkbeck,51.4039,-0.0568,
Birkdale,53.6340,-3.0145,SD330157
Birkenhead_Central,53.389,-3.019,SJ322884
Hamilton_Square,53.3947,-3.0139,SJ326891
Birkenhead_North,53.405,-3.057,SJ298902
Birkenhead_Park,53.3974,-3.0390,SJ310894
Birmingham_International,52.451,-1.725,SP187837
Birmingham_Moor_Street,52.479,-1.893,SP074867
Bishop_Auckland,54.6573,-1.6778,NZ208291
Bishopbriggs,55.9038,-4.2249,NS610701
Bishops_Stortford,51.867,0.165,TL491208
Bishopstone,50.780,0.083,TV469998
Bishopton,55.9024,-4.5009,NS437705
Bitterne,50.918,-1.377,SU438133
Blackburn,53.746396,-2.479083,SD684279
Blackheath,51.4658,0.0089,TQ39617600
Blackpool_North,53.8218,-3.0493,SD310366
Blackpool_Pleasure_Beach,53.7879,-3.0540,SD306329
Blackpool_South,53.7983,-3.0488,SD310340
Blackridge,55.881,-3.766,NS895667
Blackrod,53.591,-2.570,SD623106
Blackwater,51.332,-0.777,SU853598
Blaenau_Ffestiniog,52.99460,-3.93838,SH700458
Blair_Atholl,56.7653,-3.8496,NN870652
Blairhill,55.8665,-4.0427,NS722655
Blake_Street,52.605,-1.845,SK106007
Blakedown,52.406,-2.176,SO880787
Blantyre,55.7972,-4.0867,NS692579
Blaydon,54.9658,-1.7130,NZ184635
Bleasby,53.04167,-0.94333,SK709499
Bletchley,51.995,-0.736,SP868337
Bloxwich,52.618,-2.011,SJ993022
Bloxwich_North,52.626,-2.019,SJ989029
Blundellsands_and_Crosby,53.48767,-3.04038,SJ310994
Blythe_Bridge,52.968,-2.067,SJ956411
Bodmin_Parkway,50.4458,-4.6630,SX110640
Bodorgan,53.204,-4.418,SH386701
Bognor_Regis,50.787,-0.676,SZ934994
Bogston,55.9372,-4.7124,NS306748
Bolton,53.573,-2.425,SD719086
Bolton-on-Dearne,53.51880,-1.31156,SE457026
Bookham,51.289,-0.384,TQ127556
Bootle,54.290,-3.395,SD093892
Bootle_New_Strand,53.4534,-2.9946,SJ340956
Bootle_Oriel_Road,53.4468,-2.9957,SJ339949
Bordesley,52.471,-1.877,SP084860
Borough_Green_%26_Wrotham,51.29300,0.30564,TQ608574
Borth,52.491,-4.050,SN609900
Bosham,50.84278,-0.84722,SU812054
Boston,52.978,-0.031,TF323441
Boston_Lodge_Halt,52.92086,-4.10469,SH584378
Botanic,54.5884,-5.9328,
Botley,50.917,-1.259,SU521132
Bottesford,52.94472,-0.79529,SK810392
Bourne_End,51.577,-0.710,SU894872
Bournemouth,50.728,-1.864,SZ096919
Bournville,52.427,-1.926,SP050810
Bow_Brickhill,52.004,-0.696,SP895347
Bowes_Park,51.6078,-0.1209,
Bowling,55.9311,-4.4929,NS442736
Box_Hill_%26_Westhumble,51.254,-0.329,TQ167518
Bracknell,51.413,-0.752,SU869689
Bradford_Forster_Square,53.7970,-1.7530,SE163334
Bradford_Interchange,53.791,-1.750,SE165327
Bradford-on-Avon,51.3448,-2.2527,ST825606
Brading,50.678,-1.139,SZ609868
Braintree,51.8753,0.5569,TL760227
Braintree_Freeport,51.869,0.567,TL769220
Bramhall,53.360435,-2.162869,SJ892848
Bramley_(Hampshire),51.330,-1.061,SU655594
Bramley_(West_Yorkshire),53.80558,-1.63792,SE239344
Brampton_(Cumbria),54.933,-2.704,NY550599
Brampton_(Suffolk),52.3954,1.5437,TM411834
Branchton,55.9404,-4.8042,NS250754
Brandon,52.4539,0.6243,TL784872
Branksome,50.728,-1.919,SZ057919
Braye_Road,49.722,-2.200,
Braystones,54.440,-3.543,NY000060
Brechin_City,56.731298,-2.652414,NO601601
Bredbury,53.4230,-2.1105,SJ927918
Breich,55.8275,-3.6675,NS956606
Brentford,51.4875,-0.3096,
Brentwood,51.6136,0.3,TQ593930
Bricket_Wood,51.7058,-0.359,TL134020
Bridge_of_Allan,56.1566,-3.9573,NS785977
Bridge_of_Dun,56.71827,-2.5535,NO664586
Bridge_of_Orchy,56.5162,-4.7642,NN300394
Bridgend,51.50694,-3.57500,SS907798
Bridgeton,55.8484,-4.2250,NS607639
Bridgwater,51.1272,-2.9917,ST307369
Bridlington,54.0840,-0.1985,TA178668
Brierfield,53.825,-2.237,SD845365
Brigg,53.549,-0.486,TA004068
Brighouse,53.698,-1.779,SE146224
Brighton,50.8288,-0.1411,TQ310049
London_Road_(Brighton),50.83667,-0.13639,TQ313057
Brimsdown,51.6556,-0.0308,TQ363970
Brinnington,53.4319,-2.1341,SJ911928
Brinsford_Parkway,52.65111,-2.11833,SJ920059
Bristol_Parkway,51.51360,-2.54270,ST624795
Bristol_Temple_Meads,51.449,-2.580,ST597725
Brithdir,51.7098,-3.2281,SO152020
British_Steel_Redcar,54.6096,-1.1130,NZ573241
Briton_Ferry,51.638,-3.819,SS741948
Brixton,51.4629,-0.1132,
Broad_Green,53.406,-2.893,SJ406903
Broadbottom,53.4408,-2.0165,SJ989937
Broadstairs,51.36056,1.43361,TR391679
Brockenhurst,50.8164,-1.5739,SU301019
Brockholes,53.5970,-1.7698,SE153111
Brockley,51.4645,-0.0369,
Bromborough,53.3218,-2.9869,SJ343809
Bromborough_Rake,53.3298,-2.9900,SJ341819
Bromley_Cross,53.61411,-2.41081,SD729131
Bromley_North,51.4088,0.0179,
Bromley_South,51.4,0.017,
Bromsgrove,52.323,-2.048,SO968693
Brondesbury,51.5451,-0.202,
Brondesbury_Park,51.5407,-0.2103,
Brookmans_Park,51.721,-0.205,TL241040
Brookwood,51.304,-0.636,SU951569
Broome,52.423,-2.885,SO399809
Broomfleet,53.74000,-0.67098,SE876279
Brora,58.0131,-3.8523,NC906041
Brough,53.72670,-0.57700,SE939265
Broughty_Ferry,56.4677,-2.8741,NO462309
Broxbourne,51.747,-0.011,TL374072
Bruce_Grove,51.594,-0.0704,
Brundall,52.61944,1.43944,TG328079
Brundall_Gardens,52.62333,1.41833,TG314083
Brunstane,55.9419,-3.1007,NT313726
Brunswick,53.3833,-2.9762,SJ351878
Bruton,51.11170,-2.44732,ST687347
Bryn,53.4996,-2.6477,SD571005
Buckenham,52.59734,1.46852,TG350056
Buckley,53.163,-3.056,SJ295633
Bucknell,52.3573,-2.948,SO355736
Buckshaw_Parkway,53.674,-2.663,SD562198
Bugle,50.4000,-4.79196,SX017592
Builth_Road,52.169,-3.427,SO024532
Bures,51.971,0.769,TL903338
Burgess_Hill,50.95306,-0.12750,TQ316187
Burley_Park,53.812,-1.578,SE278351
Burley-in-Wharfedale,53.908160,-1.753500,SE162458
Burnage,53.42194,-2.21528,SJ857917
Burneside,54.355,-2.766,SD502957
Burnham,51.524,-0.646,SU940813
Burnham-on-Crouch,51.6336,0.8120,TQ947965
Burnley_Barracks,53.791,-2.258,SD831327
Burnley_Central,53.794,-2.245,SD839330
Burnley_Manchester_Road,53.785,-2.249,SD836322
Burnside,55.8169,-4.2030,NS620603
Burntisland,56.0573,-3.2335,NT232856
Burscough_Bridge,53.605,-2.842,SD444124
Burscough_Junction,53.597500,-2.840639,SD444115
Bursledon,50.884,-1.305,SU490096
Burton_Joyce,52.98306,-1.04167,SK644433
Burton_upon_Trent,52.806,-1.642,SK242232
Bury_St_Edmunds,52.254,0.713,TL852651
Busby,55.7805,-4.2623,NS582564
Bush_Hill_Park,51.6418,-0.0691,
Bushey,51.644,-0.385,
Bushmills,55.210,-6.535,
Butlers_Lane,52.59306,-1.83889,SP109994
Buxted,50.990,0.131,TQ494233
Buxton,53.261,-1.913,SK059737
Byfleet_and_New_Haw,51.3497,-0.4812,TQ058622
Bynea,51.672,-4.099,SS549991
Cadoxton,51.4122,-3.2487,ST132688
Caergwrle,53.10778,-3.03306,SJ309572
Caernarfon,53.1375,-4.2719,SH480624
Caerphilly,51.5715,-3.2186,ST156865
Caersws,52.516,-3.433,SO028918
Caldercruix,55.88798,-3.88781,NS819677
Caldicot,51.5845,-2.7598,ST474875
Caledonian_Road_%26_Barnsbury,51.5432,-0.1145,
Calstock,50.49812,-4.20902,SX433688
Cam_and_Dursley,51.718,-2.359,SO753021
Camberley,51.336,-0.745,SU875604
Camborne,50.2097,-5.2984,SW648396
Cambridge,52.194,0.138,TL462572
Cambridge_Heath,51.5321,-0.0572,
Cambuslang,55.8195,-4.1731,NS639606
Camden_Road,51.5418,-0.1388,
Camelon,56.0062,-3.8182,NS867807
Campbell%27s_Platform,52.95746,-3.97587,SH673418
Canley,52.399,-1.548,SP308780
Cannock,52.686,-2.022,SJ985098
Canonbury,51.5482,-0.0925,
Canterbury_East,51.2742444,1.0759278,TR146572
Canterbury_West,51.2840639,1.0753806,TR145583
Cantley,52.57805,1.51277,TG381036
Capenhurst,53.260,-2.942,SJ372740
Carbis_Bay,50.19730,-5.46424,SW528387
Cardenden,56.1411,-3.2609,NT217949
Cardiff_Bay,51.4671,-3.1665,ST190748
Cardiff_Queen_Street,51.4819,-3.1703,ST188765
Cardonald,55.8526,-4.3395,NS535646
Cardross,55.9601,-4.6526,NS344773
Carfin,55.8076,-3.9556,NS775588
Cark_and_Cartmel,54.178,-2.973,SD365762
Carlisle,54.891,-2.934,NY401555
Carlton,52.96444,-1.07972,SK619412
Carluke,55.73115,-3.8489,NS839501
Carmarthen,51.853,-4.306,SN412196
Carmyle,55.8343,-4.1581,NS649622
Carnalea,54.66611,-5.70583,
Carnforth,54.130,-2.771,SD496706
Carnoustie,56.5007,-2.7053,NO566345
Carntyne,55.8549,-4.1791,NS636645
Carpenders_Park,51.629,-0.386,
Carrbridge,57.2794,-3.8280,NH899224
Carrickfergus,54.717422,-5.809689,
Carshalton,51.3686,-0.1659,
Carshalton_Beeches,51.3577,-0.1714,
Carstairs,55.6913,-3.6692,NS952454
Cartsdyke,55.9422,-4.7324,NS294754
Castle_Bar_Park,51.5228,-0.3323,
Castle_Cary,51.0996,-2.5241,ST634335
Castleford,53.724,-1.355,SE426254
Castlerock,55.16528,-6.78694,
Castleton,53.5919,-2.1783,SD883106
Castleton_Moor,54.4672,-0.9466,NZ683084
Caterham,51.2825,-0.0786,
Catford,51.4447,-0.0261,
Catford_Bridge,51.4446,-0.025,
Cathays,51.4891,-3.1793,ST182773
Cathcart,55.8178,-4.2604,NS584605
Cattal,53.997440,-1.319931,SE446559
Causeland,50.40580,-4.46640,SX248591
Cefn-y-Bedd,53.099,-3.031,SJ310562
Chadwell_Heath,51.5678,0.1292,
Chalkwell,51.539,0.671,TQ852855
Chandler%27s_Ford,50.98306,-1.38444,SU432206
Chapel-en-le-Frith,53.312,-1.919,SK055794
Chapelton,51.016,-4.024,SS580260
Chapeltown_(Yorkshire),53.462300,-1.466250,SK355963
Chappel_and_Wakes_Colne,51.926,0.759,TL897288
Charing,51.208,0.790,TQ950491
Charing_Cross_(Glasgow),55.8647,-4.2700,NS580658
Charing_Cross,51.508,-0.125,
Charlbury,51.872,-1.490,SP352194
Charlton_(London),51.48686,0.03232,
Chartham,51.257,1.018,TR107552
Chassen_Road,53.4461,-2.3681,SJ756944
Chatelherault,55.7651,-4.0044,NS743542
Chatham,51.3805,0.5205,TQ755676
Chathill,55.537,-1.706,NU186270
Cheadle_Hulme,53.3763,-2.18778,SJ875865
Cheam,51.356,-0.2147,
Cheddington,51.85833,-0.66222,SP922185
Chelford_(Cheshire),53.271,-2.280,SJ814749
Chelmsford,51.7363806,0.4688167,TL705070
Chelsfield,51.3565,0.1076,
Cheltenham_Spa,51.897,-2.100,SO931220
Chepstow,51.6399,-2.6711,ST536936
Cherry_Tree,53.733,-2.518,SD658264
Chertsey,51.387,-0.510,TQ037664
Cheshunt,51.703,-0.024,TL366022
Chessington_North,51.3642,-0.3005,
Chessington_South,51.3569,-0.308,
Chester,53.1968,-2.8798,SJ413669
Chester_Road,52.535,-1.832,SP114931
Chesterfield,53.238222,-1.41972,SK388714
Chester-le-Street,54.855,-1.578,NZ271512
Chestfield_%26_Swalecliffe,51.3602250,1.0668611,TR136668
Chetnole,50.8664,-2.5730,ST597075
Chichester,50.83194,-0.78222,SU858043
Chilham,51.245,0.976,TR077536
Chilworth,51.215,-0.525,TQ031472
Chingford,51.6331,0.0094,
Chinley,53.340,-1.944,SK038826
Chippenham,51.4625,-2.1154,ST920737
Chipstead,51.309,-0.169,
Chirk,52.933,-3.066,SJ284378
Chislehurst,51.4057,0.0573,
Chiswick,51.4813,-0.2683,
Cholsey,51.5695000,-1.1579000,SU584860
Chorley,53.653,-2.627,SD586175
Christs_Hospital,51.051,-0.364,TQ14752903
Church_and_Oswaldtwistle,53.750,-2.391,SD743283
Church_Fenton,53.8263,-1.2275,SE509369
Church_Stretton,52.5375,-2.8035,SO455935
City_Hospital,54.5887,-5.9402,
Cilmeri,52.151,-3.457,SO002511
Clacton-on-Sea,51.7936,1.1541,TM176153
Clandon,51.264,-0.503,TQ045527
Clapham,54.105394,-2.410208,SD732678
Clapham_High_Street,51.4658,-0.1328,
Clapton,51.5617,-0.0571,
Clarbeston_Road,51.852,-4.884,SN015209
Clarkston,55.7894,-4.2755,NS574574
Claverdon,52.2771,-1.6965,SP208643
Claygate,51.361,-0.348,TQ150637
Cleethorpes,53.562,-0.029,TA306090
Cleland,55.8044,-3.9107,NS803584
Clifton_(Manchester),53.5223,-2.3141,SD793028
Clifton_Down,51.4646,-2.6109,ST576741
Clitheroe,53.87389,-2.39417,SD741419
Clipperstown,54.71750,-5.81639,
Clock_House,51.4085,-0.0410,
Clunderwen,51.841,-4.732,SN119192
Clydebank,55.9006,-4.4042,NS497701
Coatbridge_Central,55.8629,-4.0323,NS729651
Coatbridge_Sunnyside,55.8669,-4.0281,NS731656
Coatdyke,55.8644,-4.0050,NS746652
Cobham_%26_Stoke_d%27Abernon,51.317684,-0.389878,TQ123588
Codsall,52.627,-2.202,SJ864033
Cogan,51.4461,-3.1891,ST174725
Colchester,51.9006,0.8929,TL990263
Colchester_Town,51.8865,0.9046,TM000248
Coleraine,55.133856,-6.662937,
Coleshill_Parkway,52.517,-1.708,SP198910
Collingham,53.14444,-0.74917,SK836614
Collington,50.839,0.458,TQ730072
Colne,53.8553,-2.1822,SD881398
Colwall,52.080,-2.357,SO756424
Colwyn_Bay,53.296,-3.725,SH851791
Combe_(Oxfordshire),51.832,-1.393,SP418150
Commondale,54.4818,-0.9750,NZ665100
Congleton,53.158,-2.193,SJ872623
Conisbrough,53.489380,-1.234170,SK509994
Connel_Ferry,56.4524,-5.3834,NM916340
Cononley,53.9173,-2.0119,SD993467
Conway_Park,53.393,-3.023,SJ320889
Conwy,53.280,-3.831,SH770784
Cooden_Beach,50.833,0.427,TQ709065
Cookham,51.557,-0.722,SU886850
Cooksbridge,50.904,-0.009,TQ400134
Coombe_Junction_Halt,50.4449,-4.48109,SX239635
Copplestone,50.814,-3.752,SS767031
Corbridge,54.966,-2.019,NY989635
Corby,52.489,-0.688,SP891886
Corfe_Castle,50.6383,-2.0551,SY962820
Corkerhill,55.8373,-4.3341,NS539629
Corkickle,54.542,-3.582,NX977174
Corpach,56.8428,-5.1221,NN096767
Corrour,56.7602,-4.6907,NN356663
Coseley,52.545,-2.086,SO942941
Cosford,52.6448,-2.3,SJ797052
Cosham,50.84194,-1.06750,SU657051
Cottingham,53.781702,-0.406376,TA051328
Cottingley,53.7679,-1.5876,SE272302
Coulsdon_South,51.3157,-0.138,
Coulsdon_Town,51.3219,-0.134,
Coventry,52.400874,-1.514053,SP33057822
Cowden,51.156,0.110,TQ476417
Cowdenbeath,56.1120,-3.3431,NT165918
Cradley_Heath,52.470,-2.090,SO939857
Craigendoran,55.9949,-4.7120,NS309813
Craignure,56.46972,-5.69667,
Cramlington,55.088,-1.599,NZ257771
Craven_Arms,52.4425,-2.8375,SO431830
Crawley,51.112,-0.187,TQ270363
Crayford,51.4483,0.1786,
Crediton,50.78318,-3.64707,SX840994
Cressing,51.852,0.578,TL776202
Creswell,53.26389,-1.21639,SK523744
Crewkerne,50.8736,-2.7771,ST453085
Crews_Hill,51.6845,-0.1072,
Crianlarich,56.3903,-4.6185,NN384251
Criccieth,52.918,-4.238,SH496380
Cricklewood,51.5586,-0.2129,
Croftfoot,55.8182,-4.2282,NS604605
Crofton_Park,51.455,-0.0367,Street map
Cromer,52.9305,1.2926,TG214420
Cromford,53.113,-1.549,SK302574
Crookston,55.8422,-4.3653,NS520635
Cross_Gates,53.805,-1.450,SE363344
Crossflatts,53.858550,-1.844920,SE102402
Crosshill,55.8333,-4.2568,NS587623
Crosskeys,51.6208,-3.1259,ST221919
Crossmyloof,55.8338,-4.2847,NS570624
Croston,53.668,-2.778,SD487192
Crouch_Hill,51.5713,-0.1171,
Crowborough,51.046,0.188,TQ534297
Crowhurst,50.889,0.501,TQ760128
Crowle,53.5898,-0.8175,SE783110
Crowthorne,51.367,-0.819,SU822637
Croy,55.9555,-4.0365,NS729754
Crystal_Palace,51.4182,-0.0726,
Cuddington,53.240,-2.599,SJ600716
Cuffley,51.709,-0.110,TL307028
Culham,51.654,-1.237,SU529953
Culrain,57.9196,-4.4045,NH576947
Cullybackey,54.88806,-6.34472,
Cultra,54.6523,-5.8050,
Cumbernauld,55.9418,-3.9807,NS763738
Cupar,56.3174,-3.0087,NO376143
Curriehill,55.9006,-3.3185,NT176682
Custom_House,51.509639,0.025894,
Cuxton,51.374,0.462,TQ714667
Cwmbach,51.7011,-3.4144,SO023012
Cwmbran,51.6572,-3.0160,ST298958
Cynghordy,52.0515,-3.7483,SN802406
Daisy_Hill,53.5394,-2.5153,SD659048
Dalgety_Bay,56.0423,-3.3672,NT149841
Dalmally,56.4010,-4.9829,NN159272
Dalmarnock,55.8424,-4.2176,NS612631
Dalmeny,55.9862,-3.3815,NT139778
Dalmuir,55.9120,-4.4270,NS484714
Dalreoch,55.9472,-4.5770,NS391757
Dalry,55.7060,-4.7112,NS297491
Dalston,54.846,-2.989,NY366506
Dalston_Junction,51.54539,-0.07474,
Dalston_Kingsland,51.5482,-0.0763,TQ335850
Dalton,54.154,-3.179,SD231737
Dalwhinnie,56.9351,-4.2463,NN634848
Damems,53.8459,-1.9245,SE050388
Danby,54.466200,-0.911000,NZ706084
Danescourt,51.5005,-3.2339,ST144786
Danzey,52.324,-1.821,SP122696
Darlington,54.5209,-1.5464,NZ294140
Darnall,53.384500,-1.412300,SK391876
Darsham,52.2730,1.5236,TM404697
Dartford,51.4475,0.2193,TQ543743
Darton,53.5880,-1.5309,SE311102
Darwen,53.698,-2.465,SD694225
Datchet,51.4831194,-0.5797500,SU987769
Davenport_(Stockport),53.3908,-2.1523,SJ899882
Dawlish,50.58055,-3.46453,SX964766
Dawlish_Warren,50.59886,-3.44354,SX979787
Dduallt,52.9602,-3.9686,SH678421
Deal,51.223,1.399,TR374525
Dean,51.0424,-1.6347,SU257270
Dean_Lane,53.50417,-2.18417,
Deansgate,53.4742,-2.2508,SJ834975
Deganwy,53.295,-3.833,SH779790
Deighton,53.668340,-1.752400,SE164191
Delamere,53.229,-2.667,SJ556704
Denby_Dale,53.572670,-1.663050,SE224085
Denham,51.579,-0.497,TQ042877
Denham_Golf_Club,51.581,-0.518,TQ028879
Denmark_Hill,51.4683,-0.0894,
Dent,54.282,-2.363,SD764874
Denton,53.4575,-2.1306,SJ914956
Deptford,51.4788,-0.0265,
Derby_Midland,52.9161,-1.4633,SK362355
Derby_Road_(Ipswich),52.051,1.183,TM183439
Derker,53.5498,-2.1016,SD933058
Derriaghy,54.541594,-6.018338,
Devonport,50.37849,-4.17018,SX457554
Dewsbury,53.692,-1.633,SE243217
Dhu_Varren,55.19639,-6.66139,
Didcot_Parkway,51.61197,-1.24348,SU525905
Digby_and_Sowton,50.71406,-3.47354,SX960914
Dilton_Marsh,51.2490,-2.2079,ST855500
Dinas,53.10366,-4.27682,SH476586
Dinas_Powys,51.4314,-3.2188,ST153709
Dinas_Rhondda,51.6174,-3.4371,ST005919
Dingle_Road,51.4400,-3.1801,ST180718
Dingwall,57.5942,-4.4222,NH553585
Dinsdale,54.515,-1.467,NZ346134
Dinting,53.449,-1.970,SK020947
Disley,53.358,-2.042,SJ972845
Diss,52.374,1.124,TM127796
Dockyard,50.38246,-4.17609,SX453558
Dodworth,53.544160,-1.531950,SE311053
Dolau,52.295,-3.264,SO139670
Doleham,50.919,0.611,TQ835164
Dolgarrog,53.186,-3.823,SH782670
Dolwyddelan,53.052,-3.885,SH737521
Doncaster,53.5225,-1.1395,SE571032
Dorchester_South,50.709,-2.437,SY692900
Dorchester_West,50.711,-2.443,SY688902
Dore,53.327570,-1.515440,SK323812
Dorking,51.241,-0.324,TQ170504
Dorking_Deepdene,51.239,-0.325,TQ171501
Dorking_West,51.236,-0.340,TQ159498
Dormans,51.156,-0.004,TQ396415
Dorridge,52.372,-1.753,SP169748
Dove_Holes,53.29980,-1.89043,SK074781
Dover_Priory,51.1261556,1.3051194,TR313415
Dovercourt,51.939,1.281,TM255317
Dovey_Junction,52.564,-3.924,SN697980
Downham_Market,52.60560,0.36724,TF602033
Downpatrick,54.325334,-5.723319,
Downshire,54.72111,-5.79028,
Drayton_Green,51.5165,-0.33,
Drayton_Park,51.5528,-0.1055,Maps and aerial photos
Drem,56.0051,-2.7854,NT510793
Driffield,54.00150,-0.43200,TA027573
Drigg,54.377,-3.443,SD063988
Droitwich_Spa,52.268,-2.158,SO892633
Dronfield,53.301278,-1.468944,SK354784
Drumchapel,55.9047,-4.3630,NS523704
Drumfrochar,55.9412,-4.7723,NS269754
Drumgelloch_(1989),55.8660,-3.9548,NS776653
Drumgelloch_(2010),55.867,-3.9501,NS781655
Drumry,55.9046,-4.3854,NS509705
Duddeston,52.488,-1.871,SP088878
Dudley_Port,52.525,-2.049,SO967918
Duffield,52.988,-1.486,SK345435
Duirinish,57.3199,-5.6915,NG777314
Duke_Street,55.8590,-4.2122,NS616650
Dullingham,52.202,0.367,TL617585
Dumbarton_Central,55.9465,-4.5673,NS397755
Dumbarton_East,55.9426,-4.5542,NS405750
Dumbreck,55.8450,-4.3008,NS560637
Dumfries,55.0728,-3.6045,NX976765
Dumpton_Park,51.34583,1.42583,TR386663
Dunbar,55.9985,-2.5145,NT680784
Dunblane,56.1857,-3.9657,NN780009
Mottisfont_%26_Dunbridge,51.0339,-1.5469,SU318261
Duncraig,57.3369,-5.6372,NG812332
Dundee,56.4566,-2.9710,NO402298
Dunfermline_Queen_Margaret,56.0803,-3.4214,NT116883
Dunfermline_Town,56.0682,-3.4521,NT096870
Dunkeld_and_Birnam,56.5569,-3.5783,NO030416
Dunmurry,54.553076,-6.003059,
Dunlop,55.7119,-4.5324,NS409494
Dunrobin_Castle,57.9859,-3.9470,NC849012
Dunston,54.94972,-1.64139,NZ230617
Dunton_Green,51.2966,0.1713,TQ514575
Durham,54.7798,-1.5815,NZ269428
Durrington-on-Sea,50.81750,-0.41111,TQ120031
Dyce,57.2056,-2.1926,NJ884128
Dyffryn_Ardudwy,52.789,-4.105,SH581233
Eaglescliffe,54.529,-1.349,NZ421150
Earlestown,53.451,-2.638,SJ578951
Earley,51.441,-0.918,SU752718
Earlsfield,51.4424,-0.1877,
Earlswood_(Surrey),51.227,-0.171,TQ278491
Earlswood_(West_Midlands),52.3667,-1.8614,SP095742
East_Didsbury,53.40917,-2.2218056,SJ853903
East_Dulwich,51.4616,-0.0804,
East_Farleigh,51.255,0.485,TQ734536
East_Garforth,53.792,-1.371,SE415330
East_Grinstead,51.126,-0.018,TQ388382
East_Kilbride,55.7659,-4.1810,NS633546
East_Malling,51.286,0.439,TQ702568
East_Midlands_Parkway,52.8625,-1.2632,SK496296
East_Tilbury,51.485,0.413,TQ676789
East_Worthing,50.82167,-0.35500,TQ159037
Eastbourne,50.769,0.281,TV609991
Eastbrook,51.4379,-3.2061,ST162716
Easterhouse,55.8599,-4.1066,NS682649
Eastham_Rake,53.3077,-2.9813,SJ347794
Eastleigh,50.96944,-1.34944,SU457190
Eastrington,53.75500,-0.78500,SE800294
Ebbsfleet_International,51.4430389,0.3208833,TQ613741
Ebbw_Vale_Parkway,51.7567,-3.1961,SO175070
Eccles,53.485,-2.335,SJ778988
Eccles_Road,52.47062,0.96961,TM018900
Eccleston_Park,53.43065,-2.7805,SJ482929
Edale,53.36443,-1.81663,SK123853
Eden_Park,51.39,-0.0262,
Edenbridge,51.208,0.061,TQ440474
Edenbridge_Town,51.200,0.067,TQ445465
Edge_Hill,53.40250,-2.94639,SJ371899
Haymarket,55.9453,-3.2187,NT239731
Edinburgh_Park,55.9276,-3.3077,NT184712
Edinburgh_Waverley,55.952089,-3.189262,NT25757386
Edmonton_Green,51.6242,-0.0614,TQ342935
Effingham_Junction,51.291,-0.420,TQ102558
Eggesford,50.8878,-3.87525,SS682114
Egham,51.430,-0.547,TQ011710
Egton,54.437500,-0.761500,NZ804053
Elephant_%26_Castle,51.4944,-0.0998,
Elgin,57.6428,-3.3110,NJ218621
Ellesmere_Port,53.2821,-2.8962,SJ403764
Elmstead_Woods,51.4168,0.0441,
Elmswell,52.2381,0.9126,TL989639
Elsecar,53.499,-1.427,SE381004
Elsenham,51.921,0.228,TL533270
Elstree_%26_Borehamwood,51.6531,-0.2802,TQ190962
Eltham,51.4555,0.0515,
Elton_and_Orston,52.95167,-0.85583,SK770400
Ely,52.39028,0.26639,TL542793
Emsworth,50.85167,-0.93861,SU748063
Enfield_Chase,51.6529,-0.0908,
Enfield_Lock,51.6709,-0.0284,
Enfield_Town,51.6516,-0.0792,TQ330965
Entwistle,53.656,-2.415,SD727177
Epsom,51.334,-0.269,TQ206609
Epsom_Downs,51.3237,-0.2389,
Erdington,52.528,-1.839,SP109923
Eridge,51.089,0.201,TQ542345
Erith,51.4816,0.1754,
Esher,51.38,-0.3526,TQ146658
Essex_Road,51.5406,-0.0963,
Etchingham,51.011,0.442,TQ714263
Euston,51.5284,-0.1331,
Euxton_Balshaw_Lane,53.6607,-2.6718,SD557184
Evesham,52.0979,-1.9474,SP037444
Ewell_East,51.3451,-0.2419,
Ewell_West,51.3502,-0.2569,
Exeter_Central,50.7264,-3.53300,SX918930
Exeter_St_Thomas,50.71713,-3.53858,SX914919
Exhibition_Centre,55.8611,-4.2828,NS571655
Exmouth,50.62179,-3.41507,SX999811
Exton,50.66792,-3.44374,SX980863
Eynsford,51.363,0.204,TQ535649
Failsworth,53.5104,-2.1634,SD893016
Fairbourne,52.696,-4.049,SH616128
Fairlie,55.7515,-4.8532,NS209546
Fairwater,51.4940,-3.2339,ST144779
Falconwood,51.4592,0.0799,
Falkirk_Grahamston,56.0024,-3.7856,NS887802
Falkirk_High,55.9917,-3.7924,NS882791
Falls_of_Cruachan,56.3940,-5.1126,NN079267
Falmer,50.86194,-0.08722,TQ347086
Falmouth_Docks,50.15041,-5.05581,SW817323
Falmouth_Town,50.1484,-5.0642,SW810320
Fambridge,51.649,0.682,TQ856978
Fareham,50.852934,-1.191898,SU569063
Farnborough,51.297,-0.756,SU868560
Farnborough_North,51.302,-0.743,SU877566
Farncombe,51.197,-0.605,SU976451
Farnham,51.212,-0.792,SU844465
Farningham_Road,51.401575,0.236222,TQ556693
Farnworth,53.5503,-2.3882,SD743060
Fauldhouse,55.8224,-3.7192,NS923601
Faversham,51.31139,0.89167,TR016609
Faygate,51.096,-0.263,TQ217343
Fazakerley,53.4690,-2.9368,SJ379974
Fearn,57.7780,-3.9940,NH815782
Featherstone,53.6793,-1.3574,SE425205
Felixstowe,51.967,1.350,TM302351
Feltham,51.4481,-0.4088,
Fenchurch_Street,51.51167,-0.07881,
Feniton,50.786,-3.285,SY094993
Fenny_Stratford,52.000,-0.718,SP881342
Fernhill,51.6866,-3.3959,ST036995
Ferriby,53.71682,-0.50600,SE985255
Ferryside,51.768,-4.369,SN366104
Ffairfach,51.872,-3.993,SN629212
Filey,54.20950,-0.29200,TA113806
Filton_Abbey_Wood,51.5049,-2.5624,ST609784
Finchley_Road_%26_Frognal,51.5499,-0.1837,
Finsbury_Park,51.564653,-0.106366,
Finaghy,54.5638,-5.9866,
Finstock,51.853,-1.469,SP366173
Fishbourne,50.839,-0.815,SU835050
Fishersgate,50.8342,-0.2189,TQ255054
Fishguard_Harbour,52.012,-4.986,SM951389
Fishguard_and_Goodwick,52.0035,-4.9948,SM945381
Fiskerton,53.06056,-0.91194,SK729520
Fitzwilliam,53.6326,-1.3745,SE414153
Five_Ways,52.470,-1.913,SP059858
Fleet,51.291,-0.831,SU816552
Flimby,54.690,-3.521,NY020338
Flint,53.250,-3.133,SJ245731
Flitwick,52.004,-0.495,TL034350
Flixton,53.4439,-2.3833,SJ746941
Flowery_Field,53.462,-2.081,SJ947960
Folkestone_Central,51.0827,1.1697,TR220362
Folkestone_Harbour,51.0781,1.1874,
Folkestone_West,51.085,1.154,TR209364
Ford,50.82944,-0.57861,TQ002042
Forest_Gate,51.5494,0.0242,TQ403853
Forest_Hill,51.439,-0.053,
Formby,53.5535,-3.0708,SD291068
Forres,57.6097,-3.6258,NJ029589
Forsinard,58.3568,-3.8971,NC891425
Fort_Matilda,55.9589,-4.7953,NS250754
Fort_William,56.8207,-5.1047,NN105741
Four_Oaks,52.58000,-1.82806,SP117980
Foxfield,54.259,-3.216,SD208854
Foxton,52.119,0.057,TL409487
Frant,51.104028,0.29444,TQ607363
Fratton,50.7964,-1.0740,SU653000
Freshfield,53.5660,-3.0719,SD291082
Freshford,51.3420,-2.3010,ST791603
Frimley,51.311789,-0.7471,SU874577
Frinton-on-Sea,51.838,1.243,TM235204
Frizinghall,53.820000,-1.768600,SE153359
Frodsham,53.296,-2.723,SJ518779
Frome,51.2263,-2.3107,ST784476
Fulwell,51.4334,-0.3508,
Furness_Vale,53.349,-1.989,SK008835
Furze_Platt,51.5332,-0.7287,SU882823
Gainsborough_Central,53.3990,-0.7696,SK819898
Gainsborough_Lea_Road,53.38600,-0.76914,SK819883
Garelochhead,56.0801,-4.8254,NS242910
Garforth,53.7966,-1.3824,SE407335
Gargrave,53.978300,-2.105000,SD932535
Garrowhill,55.8553,-4.1294,NS668645
Garscadden,55.8874,-4.3638,NS521685
Garsdale,54.321,-2.326,SD788918
Garston_(Hertfordshire),51.687,-0.382,TQ119999
Garswood,53.4881,-2.672,SJ555992
Gartcosh,55.8855,-4.0788,NS700677
Garth_(Mid_Glamorgan),51.5967,-3.6428,SS863899
Garth_(Powys),52.133,-3.530,SN953494
Garve,57.6130,-4.6883,NH395613
Gathurst,53.5594,-2.6937,SD541071
Gatley,53.392907,-2.230836,SJ847886
Gatwick_Airport,51.1565,-0.1609,TQ287413
Georgemas_Junction,58.5135,-3.4518,ND155592
Gerrards_Cross,51.589,-0.555,TQ001887
Giant%27s_Causeway,55.210,-6.535,
Gidea_Park,51.582,0.2063,
Giffnock,55.8039,-4.2930,NS563591
Giggleswick,54.061800,-2.302760,SD802629
Gilberdyke,53.7479,-0.7300,SE837286
Gilfach_Fargoed,51.6842,-3.2274,ST152990
Gillingham_(Dorset),51.034,-2.273,ST809261
Gillingham_(Kent),51.3865694,0.5498861,TQ775683
Gilshochill,55.8973,-4.2825,NS573695
Gipsy_Hill,51.4246,-0.084,TQ333712
Girvan,55.2463,-4.8482,NX190983
Glaisdale,54.4394,-0.7939,NZ783055
Glan_Conwy,53.267,-3.798,SH802761
Glasgow_Central,55.858,-4.258,NS586651
Glasgow_Prestwick_Airport,55.5090,-4.6141,NS350270
Glasgow_Queen_Street,55.8622,-4.2512,NS591655
Glasshoughton,53.70861,-1.34056,SE436237
Glazebrook,53.4282,-2.4598,SJ694924
Gleneagles,56.2750,-3.7310,NN929105
Glenfinnan,56.8725,-5.4495,NM898809
Glengarnock,55.7389,-4.6752,NS321527
Glenrothes_with_Thornton,56.1623,-3.1426,NT291972
Glossop,53.444,-1.949,SK034942
Gloucester,51.865,-2.239,SO836185
Glynde,50.859,0.070,TQ458086
Glynn,54.82694,-5.80750,
Gobowen,52.8935,-3.0371,SJ303333
Godalming,51.187,-0.619,SU966439
Godley,53.452,-2.055,SJ963950
Godstone,51.218,-0.050,TQ362483
Goldthorpe,53.533620,-1.313040,SE456043
Golf_Street,56.4980,-2.7200,NO557342
Golspie,57.9712,-3.9874,NH825997
Gomshall,51.219,-0.442,TQ089478
Goodmayes,51.5655,0.1109,
Goole,53.705124,-0.872000,SE744237
Goostrey,53.223,-2.326,SJ783695
Gordon_Hill,51.6632,-0.0943,
Goring_%26_Streatley,51.5220000,-1.1335000,SU602806
Goring-by-Sea,50.81778,-0.43250,TQ104031
Gorton,53.46889,-2.16778,SJ889969
Gospel_Oak,51.5552,-0.1514,
Gourock,55.9619,-4.8158,NS243779
Gowerton,51.6487,-4.0353,SS592964
Goxhill,53.67668,-0.33734,TA099213
Grange_Park,51.6431,-0.0969,
Grange-over-Sands,54.195,-2.903,SD411781
Grangetown,51.4675,-3.1897,ST174749
Grantham,52.906,-0.642,SK914351
Grateley,51.170,-1.621,SU266413
Gravelly_Hill,52.515,-1.853,SP100908
Gravesend,51.4413167,0.3666917,TQ645740
Grays,51.476,0.322,
Great_Ayton,54.4896,-1.1154,NZ574108
Great_Bentley,51.852,1.065,TM112214
Great_Chesterford,52.060,0.194,TL504424
Great_Coates,53.57581,-0.13007,TA239104
Great_Malvern,52.109,-2.318,SO783457
Great_Missenden,51.704,-0.709,SP893013
Belfast_Great_Victoria_Street,54.5942,-5.9362,
Great_Yarmouth,52.6118,1.7207,TG519080
Greenisland,54.70028,-5.87333,
Green_Lane,53.383,-3.016,SJ325878
Green_Road,54.24442,-3.24553,SD189839
Greenbank,53.25139,-2.53389,SJ644728
Greenfaulds,55.9349,-3.9937,NS755730
Greenfield,53.5388,-2.0142,SD991046
Greenhithe,51.4506361,0.2789806,TQ584748
Greenock_Central,55.9450,-4.7515,NS282758
Greenock_West,55.9473,-4.7679,NS272761
Gretna_Green,55.0007,-3.0670,NY319678
Grimsby_Docks,53.574,-0.076,TA274103
Grimsby_Town,53.56355,-0.08700,TA267091
Grindleford,53.306,-1.626,SK249788
Grosmont,54.436,-0.725,NZ828052
Guide_Bridge,53.47444,-2.11278,SJ925975
Guiseley,53.876,-1.715,SE188422
Gunnislake,50.51600,-4.21929,SX427708
Gunton,52.866,1.349,TG255351
Gwersyllt,53.073,-3.018,SJ319533
Gypsy_Lane,54.533330,-1.180360,NZ531156
Habrough,53.60603,-0.26885,TA146135
Hackbridge,51.3778,-0.1539,
Hackney_Central,51.547,-0.0559,
Hackney_Downs,51.5483,-0.0601,
Hackney_Wick,51.543417,-0.024389,
Haddenham_and_Thame_Parkway,51.771,-0.9426,SP730085
Haddiscoe,52.52887,1.62239,TM458985
Hadfield,53.461,-1.965,SK023959
Hadley_Wood,51.6688,-0.1761,TQ261169
Hag_Fold,53.5335,-2.4939,SD673042
Haggerston,51.5386,-0.0754,
Hagley,52.422,-2.147,SO901805
Hairmyres,55.7619,-4.2205,NS608542
Hale,53.37889,-2.34750,SJ769869
Halesworth,52.347,1.506,TM388778
Halewood,53.3645,-2.8299,SJ448856
Halifax,53.720650,-1.853790,SE097249
Hall_Green,52.437,-1.845,SP106821
Hall_i%27_th%27_Wood,53.5969,-2.4132,SD727112
Hall_Road,53.4975,-3.0497,SD304006
Halling,51.352,0.445,TQ703643
Haltwhistle,54.9680,-2.4636,NY704638
Ham_Street,51.068,0.855,TR000337
Hamble,50.871,-1.329,SU473081
Hamilton_Central,55.7732,-4.0388,NS722552
Hamilton_Square,53.3947,-3.0139,SJ326891
Hamilton_West,55.7794,-4.0555,NS712558
Hammerton,53.996363,-1.284040,SE470558
Hampden_Park,50.796,0.279,TQ607021
Hampstead_Heath,51.5553,-0.1654,
Hampton,51.4159,-0.3717,
Hampton_Court,51.4028,-0.3425,
Hampton_Wick,51.4141,-0.3107,
Hampton-in-Arden,52.429,-1.700,SP205812
Hamstead,52.530,-1.928,SP049925
Hamworthy,50.72500,-2.01944,SY987917
Hanborough,51.825194,-1.3724111,SP433142
Handforth,53.346,-2.213,SJ858833
Hanwell,51.5116,-0.3389,
Hapton,53.782,-2.317,SD791317
Harlech,52.861605,-4.109531,SH580314
Harling_Road,52.45326,0.90808,TL978879
Harlington,51.962,-0.496,TL034303
Harlow_Mill,51.79,0.132,TL471123
Harlow_Town,51.781,0.095,TL446112
Harman%27s_Cross,50.6198,-2.0271,SY982800
Harold_Wood,51.5928,0.2343,
Harpenden,51.815,-0.352,TL137142
Harrietsham,51.245,0.672,TQ866529
Harringay,51.577,-0.1052,
Harringay_Green_Lanes,51.5774,-0.0977,
Harrington,54.613,-3.566,NX990253
Harrogate,53.993309,-1.537372,SE304553
Hartford,53.242,-2.554,SJ631717
Hartlebury,52.334,-2.221,SO850707
Hartlepool,54.687,-1.207,NZ512327
Hartwood,55.8112,-3.8389,NS848590
Harwich_International,51.947,1.255,TM238326
Harwich_Town,51.944,1.287,TM259324
Haslemere,51.089,-0.719,SU897329
Hassocks,50.92500,-0.14583,TQ304155
Hastings,50.858,0.576,TQ814097
Hatch_End,51.6095,-0.3681,TQ130913
Hatfield,51.764,-0.216,TL232087
Hatfield_and_Stainforth,53.588880,-1.023360,SE647106
Hatfield_Peverel,51.7797472,0.5917528,TL788122
Hathersage,53.326,-1.651,SK232810
Hattersley,53.445,-2.040,SJ974942
Havant,50.854,-0.982,SU717065
Havenhouse,53.11470,0.27314,TF522599
Haverfordwest,51.803,-4.960,SM960157
Hawarden,53.185,-3.032,SJ311658
Hawarden_Bridge,53.218167,-3.032121,SJ311695
Hawkhead,55.8421,-4.3995,NS498635
Haydon_Bridge,54.975,-2.248,NY842645
Haydons_Road,51.4255,-0.188,
Hayes,51.3765,0.0102,TQ400661
Hayes_and_Harlington,51.502,-0.4201,
Hayle,50.18560,-5.42010,SW559372
Haymarket,55.9453,-3.2187,NT239731
Haywards_Heath,51.005,-0.105,TQ330245
Hazel_Grove,53.3777,-2.1226,SJ919867
Headcorn,51.1657500,0.6271917,TQ837439
Headingley,53.818,-1.594,SE268358
Headstone_Lane,51.6024,-0.3564,
Heald_Green,53.369568,-2.236635,SJ847886
Healing,53.581840,-0.160490,TA218110
Heath_High_Level,51.5168,-3.1816,ST181804
Heath_Low_Level,51.5159,-3.1823,ST180803
Heathrow_Terminals_1,_2_and_3,51.471,-0.454,
Heathrow_Terminal_4,51.458,-0.445,
Heaton_Chapel,53.4259,-2.1793,SJ881921
Hebden_Bridge,53.7377,-2.0088,SD994268
Heckington,52.97727,-0.29402,TF146435
Hedge_End,50.93306,-1.29528,SU496149
Hednesford,52.710,-2.002,SJ999124
Heighington,54.5972,-1.5818,NZ271224
Helensburgh_Central,56.0038,-4.7315,NS297823
Helen%27s_Bay,54.66639,-5.74083,
Helensburgh_Upper,56.0124,-4.7304,NS298833
Hellifield,54.011000,-2.228000,SD851572
Helmsdale,58.1177,-3.6590,ND023155
Helsby,53.275,-2.771,SJ486756
Hemel_Hempstead,51.742,-0.491,TL042059
Hendon,51.58,-0.2389,TQ221882
Hengoed,51.6471,-3.2254,ST153949
Henley-in-Arden,52.291,-1.784,SP148659
Henley-on-Thames,51.534,-0.900,SU763823
Hensall,53.698500,-1.114500,SE585228
Hereford,52.0614,-2.7083,SO515405
Herne_Bay,51.3644944,1.1178167,TR171674
Herne_Hill,51.453,-0.102,TQ319744
Hersham,51.3768,-0.3898,TQ121654
Herston_Halt,50.6131,-1.9804,SZ014792
Hertford_East,51.799,-0.073,TL330129
Hertford_North,51.799,-0.092,TL316128
Hessle,53.71698,-0.44000,TA029256
Heswall,53.330,-3.074,SJ286819
Hever,51.181,0.095,TQ465445
Heworth,54.9516,-1.5558,NZ285619
Hexham,54.9736,-2.0949,NY940643
Heyford,51.919,-1.299,SP483247
Heysham_Port,54.0335,-2.9125,SD402600
High_Brooms,51.149,0.277,TQ592413
High_Street_(Glasgow),55.8594,-4.2400,NS598651
High_Wycombe,51.630,-0.745,SU869930
Highams_Park,51.6084,-0.0001,
Highbridge_and_Burnham,51.2184,-2.9719,ST322470
Hightown,53.525,-3.057,SD300036
Hilden,54.52278,-6.02944,
Hildenborough,51.2142,0.2277,TQ556485
Hillfoot,55.9203,-4.3199,NS550721
Hillington_East,55.8542,-4.3551,NS526648
Hillington_West,55.8559,-4.3708,NS516650
Hillside,53.622,-3.025,SD323144
Hilsea,50.828174,-1.058818,SU663035
Hinchley_Wood,51.376,-0.342,TQ155652
Hinckley,52.5350,-1.3719,SP427932
Hindley,53.5424,-2.5750,SD619052
Hinton_Admiral,50.753,-1.714,SZ202948
Hitchin,51.953,-0.263,TL194297
Hither_Green,51.4519,-0.0008,
Hollingbourne,51.265,0.628,TQ834550
Hollinwood,53.5201,-2.1467,SD903026
Holmes_Chapel,53.199,-2.351,SJ766669
Holmwood,51.181,-0.321,TQ174437
Holton_Heath,50.711,-2.078,SY945901
Holyhead,53.308,-4.631,SH247822
Holytown,55.8126,-3.9736,NS764594
Holywood,54.6411,-5.8395,
Homerton,51.547,-0.0431,
Honeybourne,52.101,-1.835,SP114448
Honiton,50.797,-3.187,ST164003
Honley,53.6082,-1.7809,SE145124
Honor_Oak_Park,51.4501,-0.0456,
Hook,51.280,-0.962,SU725539
Hooton,53.297,-2.977,SJ349782
Hope_(Flintshire),53.117,-3.037,SJ306582
Hope_(Derbyshire),53.346,-1.729,SK180832
Hopton_Heath,52.3915,-2.912,SO380774
Horley,51.169,-0.161,TQ286426
Hornbeam_Park,53.979900,-1.526950,SE311538
Hornsey,51.5862,-0.1116,
Horsforth,53.8476,-1.6302,SE244391
Horsham,51.066,-0.319,TQ178309
Horsley,51.279,-0.435,TQ092545
Horton-in-Ribblesdale,54.149380,-2.302000,SD803726
Horwich_Parkway,53.578,-2.540,SD643091
Hoscar,53.597,-2.804,SD469115
Hough_Green,53.3725,-2.775,SJ485864
Hounslow,51.462,-0.3622,
Hove,50.83528,-0.17083,TQ289055
Hoveton_and_Wroxham,52.71515,1.40678,TG302185
How_Wood_(Hertfordshire),51.7175,-0.3448,TL144033
Howden,53.764735,-0.860000,SE751304
Howwood_(Renfrewshire),55.8106,-4.5625,NS395604
Hoxton,51.5318,-0.0754,
Hoylake,53.390,-3.179,SJ216887
Hubberts_Bridge,52.97540,-0.11010,TF269436
Huddersfield,53.648,-1.785,SE143168
Humphrey_Park,53.4523,-2.327,SJ783951
Huncoat,53.772,-2.346,SD772307
Hungerford,51.415,-1.512,SU340685
Hunmanby,54.174000,-0.314550,TA101766
Huntingdon,52.329,-0.192,TL232715
Huntly,57.4445,-2.7758,NJ535396
Hunts_Cross,53.3606,-2.8560,SJ431852
Hurst_Green,51.244,0.004,TQ399513
Hutton_Cranswick,53.956000,-0.432000,TA028522
Huyton,53.410,-2.843,SJ440906
Hyde_Central,53.452,-2.086,SJ944949
Hyde_North,53.464,-2.086,SJ944964
Hykeham,53.19519,-0.59985,SK936673
Hyndland,55.8796,-4.3145,NS553675
Hythe_(Essex),51.886,0.927,TM015248
IBM,55.9295,-4.8271,NS234743
Ifield,51.116,-0.215,TQ250366
Ilford,51.5592,0.0700,
Ilkley,53.925,-1.822,SE117476
Imperial_Wharf,51.47517,-0.18281,
Ince_(Wigan),53.5391,-2.6126,SD595048
Ince_and_Elton,53.277,-2.816,SJ456758
Inch_Abbey,54.326,-5.722,
Ingatestone,51.6669528,0.3839806,TQ649991
Insch,57.3374,-2.6168,NJ629276
Invergordon,57.6891,-4.1745,NH704686
Invergowrie,56.4563,-3.0578,NO349298
Inverkeithing,56.0351,-3.3954,NT131833
Inverkip,55.9060,-4.8724,NS205718
Inverness,57.4800,-4.2230,NH667454
Invershin,57.9249,-4.3995,NH579953
Inverurie,57.2867,-2.3737,NJ775217
Ipswich,52.051,1.144,TM156437
Irlam,53.4343,-2.4341,SJ713931
Irvine,55.6116,-4.6750,NS315385
Isleworth,51.4749,-0.337,
Islip,51.826,-1.238,SP525144
Iver,51.509,-0.507,TQ037799
Ivybridge,50.3935,-3.90513,SX647565
Liverpool_James_Street,53.4048,-2.9919,SJ341902
Johnston,51.757,-4.996,SM932106
Johnstone,55.8343,-4.5032,NS432629
Jordanhill,55.8826,-4.3246,NS546679
Jordanstown,54.68722,-5.89556,
Kearsley,53.5446,-2.3755,SD752054
Kearsney,51.149,1.272,TR289439
Keighley,53.8679,-1.9011,SE066413
Keith,57.5514,-2.9542,NJ430516
Kelvedon,51.8409,0.7027,TL862192
Kelvindale,55.8934,-4.3105,NS556691
Kemble,51.676,-2.023,ST985975
Kempston_Hardwick,52.092,-0.504,TL025447
Kempton_Park,51.4210,-0.4095,TQ106703
Kemsing,51.297,0.247,TQ567577
Kemsley,51.3621500,0.7353361,TQ905660
Kendal,54.332,-2.740,SD519932
Kenley,51.3246,-0.1007,
Kennett,52.2772,0.4902,TL699672
Kennishead,55.8134,-4.3247,NS543602
Kensal_Rise,51.5342,-0.2208,TQ235832
Kent_House,51.4123,-0.0453,
Kentish_Town_West,51.5468,-0.1468,
Kents_Bank,54.173,-2.925,SD396756
Kettering,52.39307,-0.73215,SP863780
Kew_Bridge,51.4895,-0.2878,
Keyham,50.39008,-4.17984,SX451567
Keynsham,51.4180,-2.4954,ST655689
Kidbrooke,51.4621,0.0273,
Kidderminster,52.384,-2.239,SO838763
Kidsgrove,53.0863,-2.2446,SJ837543
Kidwelly,51.734,-4.317,SN401064
Kilburn_High_Road,51.5374,-0.1919,
Kildale,54.477760,-1.068100,NZ604095
Kildonan,58.1708,-3.8691,NC901217
Kilgetty,51.732,-4.715,SN126072
Kilmarnock,55.6124,-4.4992,NS427382
Kilmaurs,55.6368,-4.5306,NS408410
Kilpatrick,55.9239,-4.4525,NS468728
Kilwinning,55.6561,-4.7096,NS295436
Kinbrace,58.2585,-3.9412,NC862316
Kingham,51.902,-1.629,SP256227
Kinghorn,56.0692,-3.1743,NT269868
London_King%27s_Cross,51.5309,-0.1233,
Kings_Cross_Thameslink,51.5308,-0.1202,TQ303830
Kings_Langley,51.706,-0.438,TL080019
King%27s_Lynn,52.75385,0.403251,TF623200
Kings_Norton,52.413,-1.934,SP046795
King%27s_Nympton,50.93600,-3.90535,SS662169
King%27s_Park,55.8195,-4.2462,NS593607
Kings_Sutton,52.021,-1.281,SP494360
Kingsknowe,55.9190,-3.2642,NT210702
Kingswood,51.295,-0.211,
Kingussie,57.0776,-4.0543,NH756004
Kintbury,51.4027,-1.4459,SU386672
Kirby_Cross,51.841,1.215,TM215207
Kirk_Sandall,53.563130,-1.075480,SE613077
Kirkby,53.4864,-2.9025,SJ402992
Kirkby-in-Ashfield,53.10028,-1.25306,SK500561
Kirkby-in-Furness,54.232,-3.189,SD226825
Kirkby_Stephen,54.455,-2.369,NY762066
Kirkcaldy,56.1119,-3.1671,NT275916
Kirkconnel,55.3875,-3.9988,NS735122
Kirkdale,53.4408,-2.9811,SJ349942
Kirkham_and_Wesham,53.7868,-2.8823,SD419326
Kirkhill,55.8141,-4.1678,NS642600
Kirknewton,55.8890,-3.4332,NT104671
Kirkwood,55.8542,-4.0481,NS718642
Kirton_Lindsey,53.485,-0.594,SK933996
Kiveton_Bridge,53.340460,-1.265750,SK489828
Kiveton_Park,53.3368,-1.2394,SK507824
Knaresborough,54.0090,-1.4703,SE348571
Knebworth,51.867,-0.187,TL249202
Knighton,52.345,-3.042,SO291723
Knockholt,51.3459,0.1307,
Knottingley,53.7065,-1.2590,SE490235
Knucklas,52.360,-3.097,SO254740
Knutsford,53.30194,-2.37167,SJ752783
Kyle_of_Lochalsh,57.2800,-5.7138,NG762271
Ladybank,56.2739,-3.1215,NO306096
Ladywell,51.4562,-0.0192,
Laindon,51.5677,0.42358,TQ680882
Lairg,58.0019,-4.3998,NC582039
Lake,50.6463,-1.1664,SZ590833
Lakenheath,52.448,0.534,TL723863
Lambeg,54.529553,-6.029675,
Lamphey,51.667,-4.873,SN014003
Lanark,55.6735,-3.7723,NS886436
Lancaster,54.048,-2.807,SD472617
Lancing,50.82694,-0.32333,TQ181043
Landywood,52.657,-2.021,SJ986065
Langbank,55.9247,-4.5864,NS385731
Langho,53.805,-2.448,SD705343
Langley,51.508,-0.542,TQ013797
Langley_Green,52.494,-2.005,SO997883
Langley_Mill,53.018,-1.331,SK449470
Langside,55.8208,-4.2759,NS574609
Langwathby,54.694,-2.664,NY573334
Langwith-Whaley_Thorns,53.232694,-1.209278,SK528708
Lapford,50.8575,-3.8108,SS726079
Lapworth,52.3420,-1.7257,SP187716
Larbert,56.0222,-3.8298,NS860825
Largs,55.7928,-4.8673,NS202592
Larkhall,55.7390,-3.9753,NS760513
Larne_Harbour,54.84806,-5.79861,
Larne_Town,54.85028,-5.81417,
Laurencekirk,56.8368,-2.4653,NO717718
Lawrence_Hill,51.4582,-2.5644,ST609734
Layton,53.8350,-3.0306,SD 322 381
Lazonby_and_Kirkoswald,54.750,-2.702,NY548397
Lea_Green,53.427,-2.724,SJ519924
Lea_Hall,52.480,-1.786,SP145869
Leagrave,51.905205,-0.458625,TL061241
Lealholm,54.460550,-0.825630,NZ762078
Leamington_Spa,52.2846,-1.5363,SP317652
Leasowe,53.408,-3.100,SJ270907
Leatherhead,51.299,-0.333,TQ163568
Ledbury,52.045,-2.425,SO709386
Lee,51.4497,0.0135,
Leeds_City,53.794,-1.547,SE299331
Leicester,52.632,-1.124,SK593041
Leigh,51.194,0.211,TQ546461
Leigh_On_Sea,51.541,0.640,TQ831857
Leighton_Buzzard,51.91631,-0.67700,SP910250
Lelant,50.18380,-5.43650,SW547372
Lelant_Saltings,50.17830,-5.44226,SW543366
Lenham,51.234,0.708,TQ891518
Lenzie,55.9213,-4.1542,NS655719
Leominster,52.225,-2.730,SO501588
Letchworth_Garden_City,51.980721,-0.227677,TL217327
Leuchars,56.3751,-2.8936,NO449206
Levenshulme,53.44444,-2.19278,SJ872941
Lewes,50.87083,0.01167,TQ416098
Leyland,53.699,-2.687,SD547227
Leyton_Midland_Road,51.5693,-0.0072,
Leytonstone_High_Road,51.5634,0.0087,
Lichfield_City,52.68017,-1.82571,SK119091
Lichfield_Trent_Valley,52.68662,-1.80024,SK136099
Lidlington,52.042,-0.559,SP989391
Lincoln_Central,53.226,-0.539,SK976708
Lingfield,51.176,-0.007,TQ394438
Lingwood,52.62194,1.48917,TG363084
Linlithgow,55.9764,-3.5957,NT005770
Liphook,51.071,-0.800,SU841309
Lisburn,54.514054,-6.045811,
Liskeard,50.447,-4.469,SX247636
Liss,51.044,-0.893,SU777277
Lisvane_and_Thornhill,51.5444,-3.1856,ST178834
Little_Kimble,51.752,-0.808,SP823066
Little_Sutton,53.2854,-2.9433,SJ372769
Littleborough,53.6429,-2.0947,SD938162
Littlehampton,50.81028,-0.54639,TQ025021
Littlehaven,51.080,-0.308,TQ186324
Littleport,52.462,0.317,TL574874
Liverpool_Central,53.4045,-2.9797,SJ349901
Liverpool_Lime_Street,53.4075,-2.9784,SJ351905
Liverpool_South_Parkway,53.3577,-2.8897,SJ408849
Livingston_North,55.9016,-3.5435,NT036686
Livingston_South,55.8716,-3.5015,NT061653
Llanaber,52.742,-4.077,SH598180
Llanbedr,52.821,-4.110,SH579268
Llanbister_Road,52.336,-3.213,SO174716
Llanbradach,51.6031,-3.2331,ST146900
Llandaf,51.5085,-3.2292,ST147795
Llandanwg,52.836224,-4.123671,SH570286
Llandecwyn,52.921,-4.056496,SH618379
Llandeilo,51.885,-3.987,SN633226
Llandovery,51.995,-3.803,SN763345
Llandrindod,52.242,-3.379,SO059613
Llandudno,53.321,-3.827,SH783819
Llandudno_Junction,53.284,-3.809,SH794778
Llandybie,51.821,-4.004,SN619154
Llanelli,51.674,-4.161,SS506994
Llanfairfechan,53.257,-3.983,SH677751
Llanfairpwllgwyngyllgogerychwyrndrobwllllantysiliogogogoch,53.221,-4.209,SH525715
Llangadog,51.940,-3.893,SN699285
Llangammarch,52.114,-3.555,SN935473
Llangennech,51.691,-4.079,SN563012
Llangynllo,52.35000,-3.16167,SO209730
Llanharan,51.538,-3.441,ST001830
Llanhilleth,51.7003389,-3.1370333,SO216007
Llanishen,51.5328,-3.1818,ST181821
Llanrwst,53.139,-3.795,SH800616
Llansamlet,51.65917,-3.89500,SS697975
Llantwit_Major,51.410,-3.482,SS970689
Llanwrda,51.963,-3.872,SN714310
Llanwrtyd,52.105,-3.632,SN883464
Llwyngwril,52.667,-4.088,SH589097
Llwynypia,51.6335,-3.4533,SS995937
Lochailort,56.8814,-5.6634,NM768826
Loch_Awe,56.4021,-5.0412,NN124274
Loch_Eil_Outward_Bound,56.8554,-5.1929,NN054783
Locheilside,56.8560,-5.2903,NM994786
Lochgelly,56.1349,-3.3135,NT185943
Lochluichart,57.6218,-4.8091,NH323625
Lochwinnoch,55.7867,-4.6164,NS360579
Lockerbie,55.1231,-3.3541,NY137817
Lockwood,53.634790,-1.800800,SE132153
Charing_Cross,51.508,-0.125,
Euston,51.5284,-0.1331,
Fenchurch_Street,51.51167,-0.07881,
London_Fields,51.5407,-0.0577,
London_King%27s_Cross,51.5309,-0.1233,
London_Road_(Brighton),50.83667,-0.13639,TQ313057
London_Road_(Guildford),51.240764,-0.565277,TQ002500
St_Pancras,51.530,-0.125,
London_Waterloo_East,51.5033,-0.11475,
Waterloo_International,51.502973,-0.114809,
Londonderry,54.992069,-7.313788,
Loop_Platform,54.326,-5.722,
Long_Buckby,52.295,-1.086,SP623666
Long_Eaton,52.88500,-1.28722,SK481321
Long_Preston,54.017,-2.256,SD833579
Longbeck,54.589370,-1.031180,NZ627220
Longbridge,52.396,-1.980,SP013775
Longcross,51.385,-0.595,SU978660
Longfield,51.3960750,0.3004889,TQ601688
Longniddry,55.9763,-2.8884,NT446762
Longport,53.042,-2.216,SJ855494
Longton,52.990,-2.137,SJ908436
Looe,50.3594,-4.45653,SX253539
Lostock,53.573,-2.494,SD674086
Lostock_Gralam,53.268,-2.465,SJ690746
Lostock_Hall,53.724,-2.687,SD547255
Lostwithiel,50.40700,-4.66577,SX106597
Loughborough,52.7790750,-1.1960472,SK543204
Loughborough_Junction,51.4661,-0.102,
Lowdham,53.00667,-0.99806,SK673459
Lower_Sydenham,51.4245,-0.0336,
Lowestoft,52.4742,1.7498,TM547928
Ludlow,52.371,-2.716,SO513750
Lurgan,54.467,-6.338,
Luton,51.88227,-0.41432,TL092216
Luton_Airport_Parkway,51.873,-0.396,TL105205
Luxulyan,50.3903,-4.74799,SX047581
Lydney,51.715,-2.531,SO633020
Lye,52.46000,-2.11556,SO922846
Lymington_Pier,50.758,-1.529,SZ332955
Lymington_Town,50.761,-1.537,SZ327958
Lympstone_Commando,50.6625,-3.4410,SX982857
Lympstone_Village,50.64884,-3.43166,SX989841
Lytham,53.7392,-2.9643,SD364274
Macclesfield,53.2595,-2.1217,SJ919735
Machynlleth,52.595,-3.855,SH744013
Maesteg,51.6096,-3.6547,SS855913
Maesteg_(Ewenny_Road),51.6053,-3.6483,SS859908
Magheramorne,54.81556,-5.76667,
Maghull,53.5064,-2.9311,SD383015
Maiden_Newton,50.780,-2.569,SY599979
Maidenhead,51.519,-0.723,SU886807
Maidstone_Barracks,51.2773056,0.5140889,TQ754561
Maidstone_East,51.278,0.521,TQ758561
Maidstone_West,51.2706944,0.5156944,TQ755553
Malden_Manor,51.385,-0.261,
Mallaig,57.0056,-5.8302,NM675970
Malton,54.132,-0.797,SE787713
Malvern_Link,52.125150,-2.319403,SO782474
Manchester_Airport,53.36500,-2.27306,SJ819853
Manchester_United_Football_Ground,53.4621,-2.2914,SJ806961
Manea,52.498,0.178,TL479911
Mannez_Quarry,49.727,-2.167,
Manningtree,51.949,1.045,TM093322
Manor_Park,51.5526,0.0463,
Manor_Road,53.395,-3.171,SJ222893
Manorbier,51.660,-4.792,SS069994
Manors,54.973,-1.605,NZ252642
Mansfield,53.14222,-1.19861,SK536608
Mansfield_Woodhouse,53.16306,-1.20139,SK534632
March,52.5605,0.0905,TL418978
Marden,51.175,0.493,TQ743447
Margate,51.3852889,1.3721806,TR347705
Marino,54.6470,-5.8174,
Market_Harborough,52.48,-0.9094,SP741874
Market_Rasen,53.384,-0.337,TF107887
Markinch,56.2005,-3.1308,NO299015
Marks_Tey,51.8807528,0.7827556,TL916239
Marlow,51.571,-0.766,SU855865
Marple,53.401,-2.057,
Marsden,53.603230,-1.930700,SE046118
Marske,54.587425,-1.019000,NZ634218
Marston_Green,52.467,-1.756,SP166854
Martin_Mill,51.171,1.348,TR341466
Martins_Heron,51.408,-0.725,SU887683
Marton,54.5443,-1.1985,NZ519168
Maryhill,55.8974,-4.3016,NS561695
Maryland,51.546,0.0059,
Maryport,54.712,-3.495,NY037361
Matlock,53.138,-1.559,SK296602
Matlock_Bath,53.122,-1.558,SK297584
Mauldeth_Road,53.43389,-2.2087500,SJ862931
Maxwell_Park,55.8376,-4.2888,NS567628
Maybole,55.3546,-4.6855,NS298100
Maze_Hill,51.4826,0.0030,
Medstead_and_Four_Marks,51.1131,-1.0471,SU668353
Meldreth,52.0907,0.0089,TL377455
Melksham,51.3798,-2.1446,ST900645
Melton,52.104,1.338,TM284503
Melton_Mowbray,52.761,-0.886,SK752187
Menheniot,50.4269,-4.4103,SX289612
Menston,53.89234,-1.73555,SE174440
Meols,53.3992,-3.1552,SJ233897
Meols_Cop,53.646,-2.975,SD356170
Meopham,51.3864083,0.3569972,TQ640678
Merstham,51.264,-0.150,TQ291532
Merthyr_Tydfil,51.7444,-3.3773,SO050059
Merthyr_Vale,51.6866,-3.3370,ST076995
Metheringham,53.139,-0.391,TF077614
MetroCentre,54.958911,-1.664898,NZ215627
Mexborough,53.491,-1.289,SK472996
Micheldever,51.182,-1.261,SU517428
Micklefield,53.7887,-1.3254,SE445326
Middlesbrough,54.579100,-1.234720,NZ495207
Middlewood,53.360,-2.083,SJ945848
Midgham,51.3961,-1.1783,SU572666
Milford,51.163,-0.637,SU954413
Milford_Haven,51.715,-5.041,SM900062
Mill_Hill_(Lancashire),53.735,-2.502,SD670266
Mill_Hill_Broadway,51.6130,-0.2489,TQ213918
Millbrook_(Bedfordshire),52.0538,-0.5338,TL007405
Millbrook_(Hampshire),50.9116,-1.4343,SU398125
Milliken_Park,55.8247,-4.5344,NS413620
Millom,54.211,-3.271,SD171801
Mills_Hill,53.5511,-2.1717,SD887060
Milngavie,55.9412,-4.3145,NS555744
Milnrow,53.6080,-2.1117,SD926123
Milton_Keynes_Central,52.035,-0.773,SP841380
Minffordd,52.926,-4.084,SH599385
Minster,51.329,1.317,TR311641
Mirfield,53.6716,-1.6933,SE203195
Mistley,51.944,1.081,TM118317
Mitcham_Eastfields,51.4077,-0.1547,
Mobberley,53.330,-2.333,SJ778814
Moira,54.492,-6.215,
Monifieth,56.4799,-2.8175,NO497322
Monks_Risborough,51.736,-0.829,SP809047
Montpelier,51.4684,-2.5887,ST592745
Montrose,56.7129,-2.4722,NO711579
Moorside,53.5163,-2.3526,SD767022
Moorthorpe,53.594920,-1.304970,SE460111
Morar,56.9690,-5.8222,NM677929
Morchard_Road,50.832,-3.776,SS750051
Morden_South,51.3965,-0.199,
Morecambe,54.070,-2.870,SD432641
Moreton_(Dorset),50.701,-2.313,SY779890
Moreton_(Merseyside),53.408,-3.113,SJ260906
Moreton-in-Marsh,51.992,-1.700,SP207326
Morfa_Mawddach,52.7077,-4.0316,SH628141
Morley,53.750,-1.591,SE270282
Morpeth,55.1622,-1.6829,NZ202853
Mortimer,51.3720528,-1.0356167,SU672641
Mortlake,51.4682,-0.2672,
Moses_Gate,53.5563,-2.4017,SD734067
Moss_Side,53.7649,-2.9429,SD379302
Mossley,53.515,-2.042,SD973020
Mossley_Hill,53.379,-2.915,SJ392873
Mossley_West,54.69694,-5.95139,
Mosspark,55.8406,-4.3471,NS530633
Moston,53.52333,-2.17111,SD887029
Motherwell,55.791570,-3.994208,NS750571
Motspur_Park,51.3958,-0.2397,
Mottingham,51.4401,0.0504,
Mottisfont_%26_Dunbridge,51.0339,-1.5469,SU318261
Mouldsworth,53.232,-2.732,SJ512707
Moulsecoomb,50.84639,-0.11889,TQ325069
Mount_Florida,55.8268,-4.2611,NS584615
Mount_Vernon,55.8405,-4.1326,NS665628
Mountain_Ash,51.6817,-3.3765,ST049989
Muir_of_Ord,57.5175,-4.4602,NH527501
Muirend,55.8101,-4.2739,NS575597
Musselburgh,55.9335,-3.0725,NT331716
Mytholmroyd,53.729120,-1.981840,SE012258
Nafferton,54.01120,-0.38400,TA058584
Nailsea_and_Backwell,51.41952,-2.75030,ST479692
Nairn,57.5803,-3.8716,NH881560
Nantwich,53.063,-2.519,SJ653519
Narberth,51.799,-4.727,SN120147
Narborough,52.5708,-1.2032,SP541973
Navigation_Road,53.3953,-2.3433,SJ772888
Neath,51.662,-3.807,SS751974
Needham_Market,52.1526,1.0554,TM091548
Neilston,55.7829,-4.4269,NS479570
Nelson_(Lancashire),53.835,-2.214,SD860376
Neston,53.292,-3.064,SJ292777
Netherfield,52.96139,-1.07917,SK619408
Nethertown,54.457,-3.566,NX985079
Netley,50.875,-1.342,SU464085
New_Barnet,51.6487,-0.1733,
New_Beckenham,51.4164,-0.0348,
New_Brighton,53.437,-3.049,SJ304939
New_Clee,53.574,-0.059,TA286103
New_Cumnock,55.4022,-4.1832,NS618142
New_Eltham,51.4375,0.0722,
New_Holland,53.702,-0.360,TA083240
New_Hythe,51.313,0.455,TQ711599
New_Lane,53.611,-2.868,SD427131
New_Malden,51.4039,-0.256,
New_Mills_Central,53.365,-2.006,SJ997853
New_Mills_Newtown,53.360,-2.009,SJ995847
New_Milton,50.756,-1.658,SZ242951
New_Pudsey,53.804720,-1.680560,SE211343
New_Southgate,51.6142,-0.1432,
Newark_Castle,53.08056,-0.81333,SK795543
Newark_North_Gate,53.081,-0.799,SK804545
Newbridge_(Caerphilly),51.6658083,-3.1428139,ST210969
Newbury,51.398,-1.323,SU471667
Newbury_Racecourse,51.398,-1.308,SU482668
Newcastle_Central,54.9686,-1.6171,NZ246638
Newcraighall,55.9330,-3.0908,NT319716
Newhaven_Harbour,50.790,0.055,TQ449009
Newhaven_Town,50.795,0.055,TQ449014
Newhey,53.60083,-2.09444,
Newington,51.3534,0.6681,TQ858649
Newmarket_(Suffolk),52.2383,0.4073,TL 643 627
Newport_(Essex),51.980,0.215,TL522335
Newport_High_Street,51.5896,-2.9990,ST309883
Newquay,50.41450,-5.07529,SW815617
Newry,54.1885,-6.3625,
Newstead,53.0700,-1.2219,SK522528
Newton_(Lanark),55.8188,-4.1337,NS693608
Newton_Abbot,50.5300,-3.5997,SX867712
Newton_Aycliffe,54.6137,-1.5898,NZ265243
Newton_for_Hyde,53.457,-2.067,SJ956955
Newton-on-Ayr,55.4743,-4.6262,NS341232
Newton_St_Cyres,50.77884,-3.58915,SX880989
Newton-le-Willows,53.453,-2.614,SJ593953
Newtonmore,57.0595,-4.1184,NN715984
Newtown_(Powys),52.51222,-3.31194,SO111913
Ninian_Park,51.47639,-3.20111,ST166759
Nitshill,55.8119,-4.3603,NS521601
Norbiton,51.4124,-0.2838,
Norbury,51.4114,-0.1214,
Normans_Bay,50.826,0.389,TQ683056
Normanton,53.700490,-1.423520,SE381228
North_Berwick,56.0566,-2.7310,NT546851
North_Camp,51.276,-0.731,SU886537
North_Dulwich,51.4543,-0.0887,
North_Fambridge,51.649,0.682,TQ856978
North_Llanrwst,53.144,-3.803,SH795622
North_Queensferry,56.0124,-3.3947,NT131808
North_Road,54.5356,-1.5538,NZ289157
North_Sheen,51.4656,-0.2865,
North_Walsham,52.8169,1.3846,TG281297
North_Woolwich,51.4994,0.0623,TQ432798
Northallerton,54.3327,-1.4415,SE364931
Northampton,52.2383,-0.9071,SP747604
Northfield,52.408,-1.964,SP024789
Northfleet,51.4459528,0.3239556,TQ615744
Northolt_Park,51.5574,-0.3595,
Northumberland_Park,51.6017,-0.0541,
Northwich,53.261,-2.497,SJ669739
Norton_Bridge,52.86583,-2.19028,SJ872298
Norwich,52.627,1.307,TG239083
Norwood_Junction,51.3972,-0.075,
Nuneaton,52.5264,-1.4636,SP364921
Nunhead,51.4671,-0.0527,
Nunthorpe,54.527895,-1.169580,NZ538150
Nutbourne,50.846,-0.883,SU787057
Nutfield,51.227,-0.133,TQ304491
Oakengates,52.693,-2.450,SJ696107
Oakham,52.67250,-0.73444,SK856090
Oakleigh_Park,51.6379,-0.1667,
Oban,56.4121,-5.4749,NM857298
Ockley,51.152,-0.336,TQ164404
Okehampton,50.73244,-3.99632,SX592944
Old_Hill,52.471,-2.056,SO962858
Old_Roan,53.4868,-2.9508,SJ370993
Oldfield_Park,51.3792,-2.3807,ST736645
Olton,52.439,-1.804,SP134822
Ore,50.867,0.592,TQ824106
Ormskirk,53.5692,-2.8811,SD417084
Orpington,51.3741,0.0885,
Orrell,53.5301,-2.7090,SD531039
Orrell_Park,53.4620,-2.9628,SJ361965
Otford,51.313,0.197,TQ532593
Oulton_Broad_North,52.4777,1.7157,TM524931
Oulton_Broad_South,52.4696,1.7076,TM518922
Outwood,53.71510,-1.51043,SE324244
Overpool,53.284,-2.925,SJ384767
Overton,51.254,-1.260,SU517508
Oxenholme_Lake_District,54.305,-2.722,SD531901
Oxford,51.7534,-1.2703,SP504063
Oxshott,51.336,-0.362,TQ141609
Oxted,51.258,-0.005,TQ393528
Paddington,51.5173,-0.1774,
Paddock_Wood,51.1822,0.3890,TQ670452
Padgate,53.4057,-2.5570,SJ630900
Paignton,50.435,-3.565,SX889605
Paisley_Canal,55.8402,-4.4227,NS483634
Paisley_Gilmour_Street,55.8474,-4.4242,NS482642
Paisley_St_James,55.8519,-4.4419,NS472648
Palmers_Green,51.6184,-0.1102,
Pangbourne,51.4853,-1.09,SU632766
Pannal,53.958450,-1.532740,SE307514
Pantyffynnon,51.779,-3.997,SN622107
Par,50.355,-4.70465,SX077541
Parbold,53.591,-2.771,SD490107
Park_Street,51.7249,-0.3402,TL147042
Parkstone,50.723,-1.949,SZ037915
Parson_Street,51.43320,-2.60860,ST578706
Parton,54.570,-3.582,NX979206
Patchway,51.5258,-2.5623,ST610809
Patricroft,53.485,-2.357,SJ763987
Patterton,55.7906,-4.3352,NS536576
Peartree,52.89728,-1.47285,SK356335
Peckham_Rye,51.46989,-0.06886,
Pegswood,55.178,-1.644,NZ227871
Pemberton,53.5306,-2.6692,SD557039
Pembrey_and_Burry_Port,51.684,-4.248,SN447007
Pembroke,51.673,-4.906,SM991011
Pembroke_Dock,51.694,-4.938,SM970035
Pen-y-Bont,52.274,-3.322,SO097648
Penally,51.659,-4.722,SS118990
Penarth,51.4355,-3.1745,ST184714
Pencoed,51.5233,-3.5022,SS958815
Pengam,51.6701,-3.2301,ST150975
Penge_East,51.4191,-0.0537,
Penge_West,51.4174,-0.0648,
Penhelig,52.546,-4.035,SN620961
Penistone,53.526,-1.623,SE250033
Penkridge,52.724,-2.119,SJ920139
Penmaenmawr,53.270,-3.924,SH718765
Penmere,50.1504,-5.0830,SW798323
Penrhiwceiber,51.6702,-3.3601,ST060977
Penrhyn,52.93514,-4.06484,SH613395
Penrhyndeudraeth,52.929,-4.065,SH613388
Penrith,54.662,-2.758,NY511299
Penryn,50.1708,-5.11155,SW779346
Pensarn,52.830248,-4.110966,SH578279
Penshurst,51.197,0.173,TQ519464
Pentre-bach,51.7250,-3.3626,SO060037
Penychain,52.903,-4.339,SH428364
Penyffordd,53.143,-3.055,SJ295611
Penzance,50.12226,-5.53223,SW475306
Perranwell,50.21666,-5.11142,SW780398
Perry_Barr,52.516,-1.902,SP066909
Pershore,52.130,-2.072,SO951480
Peterborough,52.5748,-0.2502,TL186988
Petersfield,51.007,-0.941,SU743235
Petts_Wood,51.3889,0.0742,
Pevensey_and_Westham,50.81583,0.32475,TQ638043
Pevensey_Bay,50.8176,0.3425,TQ651046
Pewsey,51.342,-1.771,SU160603
Pilning,51.5563,-2.6265,ST566844
Pinhoe,50.7377,-3.4698,SX962941
Pitlochry,56.7023,-3.7353,NN938580
Pitsea,51.560,0.506,TQ738875
Plas_Halt,52.948,-4.003,SH654408
Pleasington,53.731,-2.544,SD642262
Plockton,57.3336,-5.6659,NG794329
Pluckley,51.156,0.747,TQ922432
Plumley,53.275,-2.420,SJ721754
Plumpton,50.929,-0.060,TQ364161
Plumstead,51.4897,0.0844,
Plymouth,50.37780,-4.14301,SX476553
Pokesdown,50.731,-1.825,SZ124924
Polegate,50.82111,0.24611,TQ582048
Polesworth,52.626,-1.610,SK264032
Pollokshaws_East,55.8248,-4.2872,NS568614
Pollokshaws_West,55.8239,-4.3014,NS559613
Pollokshields_East,55.8407,-4.2690,NS580632
Pollokshields_West,55.8376,-4.2761,NS575628
Polmont,55.9846,-3.7149,NS930781
Polsloe_Bridge,50.73119,-3.50169,SX941934
Ponders_End,51.6421,-0.03518,TQ360955
Pont-y-Pant,53.065,-3.863,SH752536
Pontarddulais,51.7170,-4.0454,SN587040
Pontefract_Baghill,53.692,-1.303,SE461219
Pontefract_Monkhill,53.6988,-1.3040,SE460227
Pontefract_Tanshelf,53.694,-1.319,SE450221
Pontlottyn,51.7466,-3.2794,SO117061
Pontyclun,51.5239,-3.3921,ST035815
Pontypool_and_New_Inn,51.6974,-3.0133,SO300003
Pontypridd,51.5994,-3.3419,ST071898
Poole,50.719,-1.983,SZ012911
Poppleton,53.975954,-1.148157,SE559536
Port_Glasgow,55.9335,-4.6902,NS320744
Port_Sunlight,53.349,-2.998,SJ336840
Port_Talbot_Parkway,51.592,-3.781,SS766896
Portadown,54.425,-6.446,
Portchester,50.84889,-1.12500,SU617058
Porth,51.6124,-3.4075,ST025913
Porthmadog,52.931,-4.134,SH565391
Porthmadog_Harbour,52.9239,-4.1270,SH571384
Portlethen,57.0614,-2.1280,NO923967
Portrush,55.202554,-6.653696,
Portslade,50.83556,-0.20556,TQ264055
Portsmouth_and_Southsea,50.798448,-1.090393,SU641002
Portsmouth_Arms,50.95697,-3.95086,SS630193
Portsmouth_Harbour,50.79714,-1.107044,SU629000
Possilpark_and_Parkhouse,55.8901,-4.2578,NS588686
Potters_Bar,51.697,-0.194,TL249014
Poulton-le-Fylde,53.8484,-2.9906,SD349395
Poynton,53.3503,-2.1345,SJ911837
Poyntzpass,54.2924,-6.3720,
Prees,52.8992,-2.6895,SJ537337
Prescot,53.42358,-2.79892,SJ470921
Prestatyn,53.336,-3.407,SJ063830
Prestbury,53.293,-2.145,SJ904773
Preston,53.7560,-2.7072,SD534290
Preston_Park,50.84583,-0.15500,TQ299067
Prestonpans,55.9529,-2.9750,NT392737
Prestwick_Town,55.5020,-4.6143,NS349262
Priesthill_%26_Darnley,55.8120,-4.3430,NS532601
Princes_Risborough,51.718,-0.844,SP799027
Prittlewell,51.551,0.711,TQ880870
Prudhoe,54.965722,-1.865056,NZ087634
Pulborough,50.957,-0.517,TQ042186
Purley,51.3377,-0.1135,
Purley_Oaks,51.3469,-0.0987,
Putney,51.4611,-0.2162,
Pwllheli,52.888,-4.417,SH375350
Pyle,51.526,-3.698,SS823820
Quakers_Yard,51.6604,-3.3231,ST085965
Queenborough,51.4156417,0.7497444,TQ913721
Queen%27s_Park_(Glasgow),55.8353,-4.2669,NS581625
Queens_Road_Peckham,51.4736,-0.0573,
Queenstown_Road_(Battersea),51.4748,-0.147,
Quintrell_Downs,50.40440,-5.02846,SW848604
Radcliffe,52.948889,-1.036667,SK648394
Radlett,51.685,-0.317,TQ164998
Radley,51.686,-1.240,SU526988
Radyr,51.5165944,-3.24917,ST134804
Rainford,53.517,-2.789,SD478025
Rainham_(Kent),51.366411,0.611328,TQ818662
Rainhill,53.417112,-2.767604,SJ491914
Ramsgate,51.3421,1.4018,TR371657
Ramsgreave_and_Wilpshire,53.780,-2.479,SD685316
Rannoch,56.6859,-4.5770,NN422578
Rauceby,52.985194,-0.456265,TF037442
Ravenglass_for_Eskdale,54.356,-3.409,SD085964
Ravensbourne,51.4141,-0.0075,
Ravensthorpe,53.675660,-1.655550,SE228199
Rawcliffe,53.68902,-0.95900,SE687218
Rayleigh,51.589,0.601,TQ802910
Raynes_Park,51.4094,-0.2299,
Reading,51.4590,-0.9722,SU714738
Reading_West,51.455142,-0.990516,SU702733
Rectory_Road,51.559,-0.068,
Redbridge,50.9198,-1.4702,SU373135
Redcar_British_Steel,54.6096,-1.1130,NZ573241
Redcar_Central,54.616,-1.071,NZ600249
Redcar_East,54.609,-1.052,NZ613241
Reddish_North,53.449,-2.156,SJ897947
Reddish_South,53.4361,-2.1580,SJ895932
Redditch,52.306,-1.945,SP038675
Redhill,51.24022,-0.165900,TQ281506
Redland,51.4683,-2.5994,ST584745
Redruth,50.23320,-5.22602,SW700420
Reigate,51.242,-0.204,TQ254507
Renton,55.9704,-4.5863,NS386782
Retford,53.315,-0.948,SK701803
Rhiwbina,51.5211,-3.2140,ST158809
Rhoose_Cardiff_International_Airport,51.3872,-3.3489,ST062662
Rhosneigr,53.235,-4.507,SH328737
Rhyd_Ddu,53.051444,-4.133194,SH571525
Rhyl,53.318,-3.489,SJ009811
Rhymney,51.7589,-3.2896,SO110074
Ribblehead,54.2057,-2.3609,SD765789
Rice_Lane,53.4576,-2.9628,SJ361960
Riddlesdown,51.3323,-0.0996,
Ridgmont,52.026,-0.595,SP965373
Riding_Mill,54.948778,-1.971861,NZ019615
Risca_and_Pontymister,51.60554,-3.09304,ST245902
Rishton,53.764,-2.420,SD723298
Robertsbridge,50.985,0.469,TQ733235
Roby,53.410,-2.856,SJ432906
Rochdale,53.610,-2.1541,SD899126
Roche,50.4186,-4.83039,SW989614
Rochester,51.3853,0.5109,TQ747681
Rochford,51.582,0.702,TQ873904
Rock_Ferry,53.373,-3.011,SJ328866
Rogart,57.9886,-4.1584,NC724019
Rogerstone,51.596,-3.067,ST262890
Rolleston,53.06528,-0.89972,SK737525
Roman_Bridge,53.0443,-3.9214,SH712514
Romford,51.5749,0.1827,
Romiley,53.414,-2.089,SJ941908
Romsey,50.9927,-1.4933,SU356216
Roose,54.115,-3.195,SD220694
Ropley,51.0876,-1.1024,SU629324
Rose_Grove,53.787,-2.282,SD815322
Rose_Hill,53.396,-2.076,SJ950887
Rosyth,56.0455,-3.4269,NT112845
Rotherham_Central,53.4322,-1.3605,SK425930
Rotherhithe,51.5008,-0.0522,
Roughton_Road,52.917917,1.299733,TG219407
Rowlands_Castle,50.892,-0.957,SU734108
Rowley_Regis,52.477,-2.031,SO980866
Roy_Bridge,56.8884,-4.8376,NN272810
Roydon,51.775,0.036,TL405104
Royston,52.053,-0.027,TL353412
Ruabon,52.987176,-3.043363,SJ303438
Rufford,53.635,-2.807,SD466156
Rugby,52.379,-1.250,SP511759
Rugeley_Town,52.754,-1.937,SK043174
Rugeley_Trent_Valley,52.770,-1.930,SK048191
Runcorn,53.339,-2.739,SJ508826
Runcorn_East,53.327,-2.665,SJ557814
Ruskington,53.04143,-0.38050,TF086505
Ruswarp,54.470,-0.628,NZ890091
Rutherglen,55.8312,-4.2136,NS615619
Ryde_Esplanade,50.733,-1.160,SZ593929
Ryde_Pier_Head,50.739,-1.160,SZ593935
Ryde_St_John%27s_Road,50.724,-1.157,SZ596919
Ryder_Brow,53.45694,-2.17389,SJ885955
Rye,50.952,0.731,TQ918205
Rye_House,51.769,0.006,TL384097
St_Albans_City,51.7504,-0.3274,TL155070
St_Albans_Abbey,51.7447,-0.3426,TL145063
St_Andrews_Road,51.5132,-2.6962,ST517795
St_Annes-on-the-Sea,53.7531,-3.0290,SD322290
St_Austell,50.3397,-4.79028,SX016525
St_Bees,54.493,-3.591,NX970119
St_Budeaux_Ferry_Road,50.40141,-4.18680,SX446580
St_Budeaux_Victoria_Road,50.40210,-4.18765,SX446581
St_Columb_Road,50.39820,-4.94070,SW910595
St_Denys,50.9220,-1.3880,SU431138
St_Erth,50.17140,-5.44374,SW541357
St_Germans,50.39430,-4.30876,SX360574
St_Helens_Central,53.4529,-2.730,SJ516953
St_Helens_Junction,53.434,-2.700,SJ535932
St._Helier,51.3901,-0.1985,
St_Ives,50.20890,-5.47824,SW519401
St_James_Park,50.73059,-3.52233,SX925934
St_James_St_Walthamstow,51.581,-0.0323,
St_Johns,51.4691,-0.0225,
St_Keyne_Wishing_Well_Halt,50.4223,-4.46368,SX251610
St_Leonards_Warrior_Square,50.856,0.561,TQ803093
St_Margarets_(Herts),51.788,0.001,TL381118
St_Mary_Cray,51.394,0.106,
St_Michaels,53.3757,-2.9529,SJ367869
St._Neots,52.232,-0.247,TL197607
St_Pancras,51.530,-0.125,
Salford_Central,53.4828,-2.2558,SJ831984
Salford_Crescent,53.48639,-2.27583,SJ818988
Salfords,51.202,-0.162,TQ285462
Salhouse,52.6756,1.3915,TG293140
Salisbury,51.0705,-1.8055,SU136301
Saltaire,53.8385,-1.7904,SE138380
Saltash,50.40719,-4.20924,SX431587
Saltburn,54.5835,-0.9740,NZ664214
Saltcoats,55.6340,-4.7849,NS248413
Saltmarshe,53.7222,-0.8070,SE786257
Salwick,53.7819,-2.8195,SD461320
Sampford_Courtenay,50.76975,-3.94896,SX626985
Sandal_and_Agbrigg,53.663000,-1.481000,SE343186
Sandbach,53.150,-2.394,SJ737615
Sanderstead,51.3484,-0.094,
Sandhills,53.4300,-2.9917,SJ342930
Sandhurst_(Berks),51.346,-0.804,SU833615
Sandling,51.090,1.066,TR148368
Sandown,50.657,-1.162,SZ593844
Sandplace,50.3872,-4.46481,SX248570
Sandwell_and_Dudley,52.508637,-2.011776,SO992900
Sandwich,51.270,1.343,TR332576
Sandy,52.125,-0.281,TL177487
Sankey,53.3923,-2.6506,SJ568885
Sanquhar,55.3710,-3.9248,NS780102
Sarn,51.5388,-3.5898,SS898834
Saundersfoot,51.722,-4.717,SN123061
Saunderton,51.676,-0.825,SU813981
Sawbridgeworth,51.814,0.16,TL490150
Saxilby,53.267,-0.664,SK892752
Saxmundham,52.2150,1.4901,TM385631
Scarborough,54.279800,-0.405500,TA039883
Scarva,54.33222,-6.36639,
Scotscalder,58.4829,-3.5521,ND096560
Scotstounhill,55.8849,-4.3524,NS529682
Scunthorpe,53.58618,-0.65100,SE893108
Sea_Mills,51.4799,-2.6498,ST549758
Seaforth_%26_Litherland,53.4657,-3.0050,SJ333970
Seaham,54.837,-1.341,NZ420495
Seahill,54.6609,-5.7680,
Seamer,54.24058,-0.41707,TA032839
Seascale,54.396,-3.485,NY036011
Seaton_Carew,54.658,-1.200,NZ516295
Seer_Green_and_Jordans,51.6098,-0.6079,SU965910
Selby,53.783000,-1.063440,SE618322
Selhurst,51.3921,-0.0883,
Sellafield,54.417,-3.510,NY020034
Selling,51.2772111,0.9411056,TR052572
Selly_Oak,52.441,-1.935,SP044826
Settle,54.0670,-2.2808,SD817634
Seven_Kings,51.5635,0.0969,
Seven_Sisters,51.582222,-0.075278,
Sevenoaks,51.27639,0.18167,TQ522553
Severn_Beach,51.5598,-2.6642,ST540847
Shadwell,51.5112,-0.0569,
Shalford,51.214,-0.567,TQ002471
Shanklin,50.633767,-1.179073,SZ580819
Shaw_and_Crompton,53.5762,-2.0898,SD941088
Shawford,51.022,-1.328,SU472249
Shawlands,55.8293,-4.2924,NS565619
Sheerness_On_Sea,51.4410,0.7585,TQ917748
Shelford,52.149,0.140,TL465522
Shenfield,51.6307,0.3297,TQ613949
Shenstone,52.639,-1.844,SK106046
Shepherds_Well,51.188194,1.22972,TR257481
Shepherd%27s_Bush,51.505128,-0.217561,
Shepley,53.588950,-1.705370,SE196103
Shepperton,51.396861,-0.446694,TQ081676
Shepreth,52.114,0.031,TL392481
Sherborne,50.944,-2.513,ST640161
Sherburn-in-Elmet,53.797400,-1.232800,SE506337
Sheringham,52.941,1.211,TG156430
Shettleston,55.8536,-4.1599,NS648643
Shieldmuir,55.7774,-3.9578,NS773554
Shifnal,52.666,-2.372,SJ749076
Shildon,54.6262,-1.6368,NZ235257
Shiplake,51.511,-0.883,SU776797
Shipley,53.8331,-1.7734,SE150374
Shippea_Hill,52.430,0.413,TL641841
Shipton,51.866,-1.593,SP281186
Shirebrook,53.2041,-1.2026,SK533677
Shirehampton,51.4844,-2.6792,ST529763
Shireoaks,53.325,-1.168,SK555811
Shirley_(West_Midlands),52.403,-1.845,SP106783
Shoreditch_High_Street,51.5234,-0.0768,
Shoeburyness,51.531,0.795,TQ939850
Sholing,50.897,-1.364,SU447109
Shoreham,51.332,0.189,TQ525615
Shoreham-by-Sea,50.83417,-0.27139,TQ218052
Shortlands,51.4064,0.0013,
Shotton,53.213,-3.038,SJ307689
Shotts,55.8186,-3.7989,NS874598
Shrewsbury,52.712,-2.75,SJ494129
Sidcup,51.4338,0.104,
Sileby,52.7312278,-1.1095611,SK602151
Silecroft,54.226,-3.335,SD130819
Silkstone_Common,53.5350,-1.5635,SE290043
Silver_Street,51.615,-0.067,
Silverdale,54.170,-2.804,SD476751
Silvertown,51.5019,0.0452,
Singer,55.9075,-4.4055,NS497708
Sittingbourne,51.3420083,0.7348083,TQ905638
Skegness,53.143,0.334,TF562631
Skewen,51.661,-3.847,SS723974
Skipton,53.9586,-2.0264,SD983513
Slade_Green,51.4678,0.1904,
Slaithwaite,53.623800,-1.881480,SE079141
Slateford,55.9265,-3.2441,NT223710
Sleaford,52.995488,-0.410350,TF067454
Sleights,54.461100,-0.662600,NZ867081
Slough,51.512,-0.592,SU978801
Small_Heath,52.463,-1.858,SP096850
Smallbrook_Junction,50.711,-1.155,SZ596906
Smethwick_Galton_Bridge,52.50222,-1.98028,SP014893
Smethwick_Rolfe_Street,52.496,-1.971,SP021887
Smithy_Bridge,53.6333,-2.1134,SD925151
Snaith,53.69279,-1.02600,SE643222
Snodland,51.330,0.448,TQ706618
Snowdown,51.215,1.214,TR245511
Sole_Street,51.3831917,0.3781472,TQ655675
Solihull,52.41472,-1.78889,SP144796
Somerleyton,52.5102,1.6522,TM479965
South_Acton,51.4994,-0.2707,
South_Bank,54.584,-1.177,NZ532212
South_Bermondsey,51.4878,-0.0544,
South_Croydon,51.3629,-0.0937,
South_Elmsall,53.5948,-1.2854,SE473111
South_Greenford,51.5342,-0.3369,
South_Gyle,55.9366,-3.2998,NT189722
South_Hampstead,51.5408,-0.1802,TQ263840
South_Kenton,51.5708,-0.3087,
South_Merton,51.403,-0.2062,
South_Milford,53.782420,-1.251140,SE494320
South_Ruislip,51.5565,-0.3988,
South_Tottenham,51.5802,-0.072,
South_Wigston,52.5824,-1.1339,SP587986
South_Woodham_Ferrers,51.650,0.607,TQ804977
Southall,51.506,-0.3783,
Southampton_Airport_Parkway,50.9503,-1.3634,SU448170
Southampton_Central,50.9075,-1.4141,SU412121
Southbourne,50.848,-0.908,SU769059
Southbury,51.6484,-0.0530,
Southease,50.83056,0.03056,TQ430054
Southend_Central,51.53722,0.71167,TQ881855
Southend_East,51.5389,0.7317,TQ894857
Southend_Victoria,51.54167,0.71111,TQ881860
Southminster,51.66006,0.83386,TQ961995
Southport,53.647,-3.002,SD338171
Southwick,50.83250,-0.23694,TQ242051
Sowerby_Bridge,53.708,-1.907,SE062235
Spalding,52.7889,-0.1569,TF243228
Spean_Bridge,56.8899,-4.9215,NN221814
Spital,53.3400,-2.9941,SJ338831
Spondon,52.91194,-1.41056,SK397351
Spooner_Row,52.5351,1.0860,TM094975
Spring_Road,52.444,-1.836,SP111828
Springburn,55.8816,-4.2296,NS606676
Springfield,56.2950,-3.0528,NO349119
Squires_Gate,53.7773,-3.0503,SD30883173
Stafford,52.80359,-2.12307,SJ918229
Staines,51.432,-0.503,TQ042714
Stallingborough,53.58713,-0.18357,TA203115
Stalybridge,53.4841,-2.0647,SJ958986
Stamford_(Lincs),52.6480,-0.4798,TF029066
Stamford_Hill,51.5742,-0.0779,TQ333879
Stanford-le-Hope,51.514,0.423,TQ682822
Stanlow_and_Thornton,53.278,-2.841,SJ440760
Stansted_Airport,51.889,0.261,TL556235
Stansted_Mountfitchet,51.901,0.200,TL514248
Staplehurst,51.171,0.550,TQ783444
Stapleton_Road,51.4675,-2.5661,ST607743
Starbeck,53.999004,-1.500653,SE328560
Starcross,50.62781,-3.44768,SX976819
Staveley,54.375,-2.819,SD469980
Stechford,52.484,-1.811,SP128874
Steeton_and_Silsden,53.899980,-1.944380,SE037448
Stepps,55.8901,-4.1406,NS662684
Stevenage,51.902,-0.207,TL234241
Stevenston,55.6343,-4.7499,NS269412
Stewartby,52.069,-0.521,TL014422
Stewarton,55.6821,-4.5181,NS417460
Stockport,53.40500,-2.16278,SJ892898
Stocksfield,54.946750,-1.916639,NZ054613
Stocksmoor,53.594190,-1.723550,SE183108
Stockton,54.5697,-1.3183,NZ441196
Stoke_Mandeville,51.788,-0.784,SP839106
Stoke_Newington,51.565,-0.073,
Stoke-on-Trent,53.0081,-2.181,SJ879456
Stone_(Staffs),52.908,-2.155,SJ896345
Stone_Crossing,51.4513972,0.2639250,TQ573749
Stonebridge_Park,51.5441,-0.2754,
Stonegate,51.020,0.364,TQ658271
Stonehaven,56.9667,-2.2256,NO863861
Stonehouse,51.746,-2.280,SO808052
Stoneleigh,51.363,-0.2485,TQ221642
Stourbridge_Junction,52.448,-2.134,SO909833
Stourbridge_Town,52.455,-2.142,SO904842
Stowmarket,52.190,1.000,TM051588
Stranraer_Harbour,54.9093,-5.0249,NX062613
Stratford-upon-Avon,52.194,-1.716,SP194551
Strathcarron,57.4228,-5.4286,NG942421
Strawberry_Hill,51.4389,-0.3388,
Streatham,51.426,-0.1314,
Streatham_Common,51.4187,-0.1362,
Streatham_Hill,51.438,-0.1271,
Streethouse,53.6762,-1.4000,SE397201
Strines,53.375,-2.033,SJ978864
Stromeferry,57.3523,-5.5509,NG865346
Strood,51.3968,0.5005,TQ740693
Stroud,51.745,-2.219,SO849051
Sturry,51.301056,1.12222,TR177603
Styal,53.348,-2.240,SJ840835
Sudbury,52.036,0.735,TL876410
Sudbury_%26_Harrow_Road,51.554,-0.3167,
Sudbury_Hill_Harrow,51.5589,-0.3358,
Sugar_Loaf,52.082,-3.687,SN844438
Summerston,55.8988,-4.2921,NS567696
Sunbury,51.4182,-0.4176,TQ100699
Sundridge_Park,51.4137,0.0221,
Sunningdale,51.39222,-0.63306,SU952667
Sunnymeads,51.470,-0.559,TQ001755
Surbiton,51.3926,-0.3044,
Surrey_Quays,51.49358,-0.04717,
Sutton_Coldfield,52.564,-1.824,SP118963
Sutton_Common,51.3751,-0.1964,
Sutton_Parkway,53.11389,-1.24583,SK505576
Swale,51.3893083,0.7472611,TQ912691
Swanage,50.61020,-1.96145,SZ029789
Swanley,51.3934,0.1690,TQ509682
Swanscombe,51.449120,0.309867,TQ606747
Swansea,51.6253,-3.9409,SS657936
Swanwick,50.875656,-1.265852,SU517087
Sway,50.785,-1.610,SZ275984
Swaythling,50.9411,-1.3765,SU439159
Swinderby,53.16935,-0.70274,SK868643
Swindon,51.5656,-1.7854,SU149851
Swineshead,52.96969,-0.18725,TF218429
Swinton_(Manchester),53.5148,-2.3367,SD777020
Swinton_(South_Yorkshire),53.4863,-1.3058,SK461990
Sydenham_Hill,51.4326,-0.0802,
Syon_Lane,51.4818,-0.3248,
Syston,52.6941667,-1.0825000,SK621111
Tackley,51.881,-1.297,SP484205
Tadworth,51.292,-0.236,
Taffs_Well,51.5409,-3.2635,ST124832
Tain,57.8144,-4.0519,NH781823
Tal-y-Cafn,53.228,-3.818,SH787717
Talsarnau,52.904418,-4.068134,SH609361
Talybont,52.773,-4.097,SH586214
Tame_Bridge_Parkway,52.552257,-1.975991,SP017949
Tamworth,52.6369,-1.6867,SK213044
Tanygrisiau,52.98580,-3.96303,SH683449
Tan-y-Bwlch,52.95439,-4.01112,SH650415
Taplow,51.524,-0.681,SU915813
Tattenham_Corner,51.3093,-0.2427,
Taunton,51.0228,-3.1035,ST227254
Taynuilt,56.4309,-5.2394,NN003312
Teddington,51.4247,-0.3325,
Teesside_Airport,54.5185,-1.4252,NZ373138
Teignmouth,50.54814,-3.49452,SX942731
Telford_Central,52.681,-2.441,SJ702093
Templecombe,51.002,-2.4164,ST707225
Tenby,51.67250,-4.70667,SN129005
Teynham,51.3333,0.808,TQ956631
Thames_Ditton,51.3886,-0.3383,
Thatcham,51.394,-1.243,SU528663
Thatto_Heath,53.4367,-2.7594,SJ496936
The_Lakes,52.3591,-1.8448,SP106734
Theale,51.433,-1.075,SU644708
Theobalds_Grove,51.692,-0.035,TL358010
Thetford,52.4190,0.7455,TL867836
Thirsk,54.228240,-1.372620,SE409816
Thornaby,54.559270,-1.301000,NZ453184
Thorne_North,53.6162,-0.9724,SE680137
Thorne_South,53.6034,-0.9549,SE692123
Thornford,50.9107,-2.5792,ST593125
Thornliebank,55.8108,-4.3114,NS552599
Thornton_Abbey,53.6545,-0.3231,TA109188
Thornton_Heath,51.3985,-0.1004,
Thorntonhall,55.7683,-4.2506,NS588551
Thorpe_Bay,51.538,0.762,TQ916857
Thorpe_Culvert,53.12303,0.19937,TF472606
Thorpe-le-Soken,51.848,1.162,TM178212
Three_Bridges,51.117,-0.161,TQ288369
Three_Oaks,50.9003,0.6136,TQ838144
Thurgarton,53.02917,-0.96194,SK697484
Thurnscoe,53.545470,-1.308470,SE459056
Thurso,58.5900,-3.5278,ND112679
Thurston,52.25,0.8086,TL918650
Tilbury_Town,51.462,0.354,TQ636763
Tile_Hill,52.3951,-1.5970,SP275775
Tilehurst,51.4715000,-1.0295000,SU674752
Tipton,52.530,-2.066,SO956925
Tir-Phil,51.7209,-3.2459,SO140032
Tisbury,51.061,-2.079,ST945290
Tiverton_Parkway,50.91700,-3.36012,ST045139
Todmorden,53.7138,-2.0997,SD935241
Tolworth,51.3839,-0.2807,
Ton_Pentre,51.6478,-3.4863,SS972953
Tonbridge,51.191,0.271,TQ586460
Tondu,51.5474,-3.5952,SS894843
Tonfanau,52.614,-4.124,SH563038
Tonypandy,51.6200,-3.4492,SS997922
Tooting,51.4196,-0.1603,
Topsham,50.68588,-3.46401,SX966883
Torquay,50.46126,-3.54310,SX905635
Torre,50.4729,-3.5463,SX903648
Totnes,50.43560,-3.68868,SX801609
Totton,50.9178,-1.4826,SU364132
Town_Green,53.5430,-2.9044,SD401055
Trafford_Park,53.4547,-2.3117,SJ794953
Treforest,51.5920,-3.3250,ST083889
Treforest_Estate,51.56806,-3.29000,ST106862
Trehafod,51.6101,-3.3806,ST045910
Treherbert,51.6718,-3.5356,SS938981
Treorchy,51.6575,-3.5061,SS959964
Trimley,51.9767,1.3194,TM280361
Tring,51.801,-0.622,SP950122
Troed-y-rhiw,51.7120,-3.3464,SO070023
Troon,55.5426,-4.6555,NS325308
Trooperslane,54.710059,-5.849477,
Trowbridge,51.3200,-2.2143,ST851578
Truro,50.26400,-5.06432,SW817449
Tulloch,56.8841,-4.7012,NN354802
Tulse_Hill,51.4399,-0.1049,
Tunbridge_Wells,51.130,0.263,TQ584392
Turkey_Street,51.6726,-0.0472,
Tutbury_and_Hatton,52.864,-1.682,SK215296
Twickenham,51.4504,-0.3296,
Twyford,51.476,-0.863,SU790757
Ty_Croes,53.223,-4.475,SH348723
Ty_Glas,51.5217,-3.1971,ST171809
Tygwyn,52.893728,-4.078597,SH602349
Tyndrum_Lower,56.4336,-4.7135,NN327301
Tyndrum_Upper,56.4345,-4.7036,NN333302
Tyseley,52.454,-1.839,SP109840
Tywyn,52.5854,-4.0937,SH582006
Uckfield,50.969,0.096,TQ473209
Uddingston,55.8235,-4.0867,NS693608
Ulceby,53.61930,-0.30079,TA124149
Ulleskelf,53.853560,-1.214060,SE517399
Ulverston,54.192,-3.098,SD284778
Umberleigh,50.99620,-3.98306,SS609238
University_(Birmingham),52.451,-1.936,SP043837
University_(of_Ulster),55.15056,-6.66833,
Uphall,55.9190,-3.5022,NT061705
Up_Holland,53.528,-2.741,SD509037
Upper_Halliford,51.413,-0.431,TQ092694
Upper_Holloway,51.5638,-0.1298,
Upper_Tyndrum,56.4345,-4.7036,NN333302
Upper_Warlingham,51.3086,-0.078,
Upton,53.38583,-3.08389,SJ279882
Urmston,53.4483,-2.3536,SJ766946
Uttoxeter,52.8968,-1.8575,SK097332
Valley,53.281,-4.563,SH291791
Virginia_Water,51.402,-0.562,TQ001679
Waddon,51.3674,-0.117,
Wadhurst,51.073,0.313,TQ621329
Wainfleet,53.105,0.235,TF497587
Wakefield_Kirkgate,53.679,-1.488,SE339204
Wakefield_Westgate,53.6820,-1.5055,SE327207
Walkden,53.5197,-2.3960,SD738026
Wallasey_Grove_Road,53.428,-3.070,SJ290929
Wallasey_Village,53.423,-3.069,SJ290923
Wallington,51.3592,-0.1533,
Wallyford,55.9405,-3.0147,NT366723
Walmer,51.203,1.383,TR364503
Walsall,52.5840,-1.9851,SP010984
Walsden,53.696340,-2.104670,SD931222
Waltham_Cross,51.6851,-0.0266,TL365003
Walthamstow_Central,51.583056,-0.019722,
Walthamstow_Queens_Road,51.5817,-0.024,
Walton_(Merseyside),53.4562,-2.9661,SJ359959
Walton-on-the-Naze,51.846,1.268,TM251214
Walton-on-Thames,51.3728,-0.4143,TQ104649
Wanborough,51.245,-0.668,SU931503
Wandsworth_Common,51.4464,-0.1635,
Wandsworth_Road,51.47,-0.1384,
Wandsworth_Town,51.4609,-0.1879,
Wanstead_Park,51.5518,0.0264,
Wapping,51.5044,-0.0558,
Warblington,50.8533,-0.9667,SU727065
Ware_(Herts),51.808,-0.029,TL360139
Wareham,50.693,-2.115,SY919881
Wargrave,51.498,-0.877,SU780783
Warminster,51.2069,-2.1768,ST877453
Warnham,51.093,-0.329,TQ170339
Warrington_Bank_Quay,53.3857,-2.6023,SJ599878
Warrington_Central,53.3918,-2.5930,SJ606885
Warwick,52.2865,-1.5819,SP286654
Warwick_Parkway,52.286,-1.612,SP265653
Water_Orton,52.518611,-1.743889,SP174912
Waterbeach,52.262,0.197,TL500650
Wateringbury,51.2493,0.4225,TQ691528
Waterloo_(Merseyside),53.4749,-3.0256,SJ320980
Watford_High_Street,51.652597,-0.391812,
Watford_North,51.676,-0.390,TQ114986
Watford_Stadium,51.646729,-0.40834,
Watford_West,51.6485,-0.4143,TQ098955
Watlington_(Norfolk),52.67273,0.38270,TF612110
Watton-at-Stone,51.8569,-0.1198,TL295192
Waun-gron_Park,51.4882,-3.2296,ST147772
Waunfawr,53.106,-4.202,SH527587
Edinburgh_Waverley,55.952089,-3.189262,NT25757386
Wavertree_Technology_Park,53.406,-2.924,SJ387902
Wedgwood,52.951,-2.171,SJ886393
Weeley,51.853,1.115,TM146217
Weeton,53.923050,-1.581340,SE275475
Welham_Green,51.736,-0.211,TL237056
Welling,51.4647,0.1017,
Wellingborough,52.304,-0.6764,SP903681
Wellington_Shropshire,52.7015,-2.517,SJ651116
Welshpool,52.657469,-3.139947,SJ229072
Welwyn_Garden_City,51.801,-0.204,TL240129
Welwyn_North,51.824,-0.192,TL247154
Wem,52.8564,-2.718,SJ517290
Wembley_Stadium,51.5543,-0.2863,
Wemyss_Bay,55.8769,-4.8891,NS192685
Wendover,51.762,-0.747,SP865077
Wennington,54.124,-2.587,SD616699
West_Allerton,53.3696,-2.9075,SJ397862
West_Byfleet,51.3395,-0.5054,TQ041610
West_Calder,55.8537,-3.5671,NT019633
West_Drayton,51.5099417,-0.4722639,
West_Dulwich,51.4409,-0.0906,
West_Ealing,51.5137,-0.3203,
West_Hampstead,51.5473,-0.1918,
West_Hampstead_Thameslink,51.5484,-0.1930,
West_Horndon,51.5679,0.3406,TQ623880
West_Kilbride,55.6967,-4.8514,NS208484
West_Kirby,53.373,-3.184,SJ213869
West_Malling,51.292,0.419,TQ687575
West_Norwood,51.4318,-0.1035,
West_Runton,52.9355,1.2457,TG281297
West_St_Leonards,50.853,0.540,TQ788090
West_Sutton,51.3659,-0.2052,
West_Wickham,51.3813,-0.0145,
West_Worthing,50.81833,-0.39278,TQ132033
Westbury,51.2665,-2.1995,ST861519
Westcliff,51.537,0.691,TQ867854
Westcombe_Park,51.4842,0.0187,
Westenhanger,51.095,1.038,TR128372
Wester_Hailes,55.9144,-3.2838,NT198697
Westerfield,52.081,1.166,TM170472
Westerton,55.9048,-4.3351,NS541704
Westgate-on-Sea,51.381,1.338,TR323699
Westhoughton,53.5558,-2.5233,SD654067
Weston_Milton,51.3479,-2.9433,ST344614
Weston-super-Mare,51.3446,-2.9716,ST324610
Wetheral,54.884,-2.832,NY467546
Weybridge,51.3616,-0.4575,TQ074636
Weymouth,50.616,-2.455,SY679797
Weymouth_Quay,50.60863,-2.44828,SY683789
Whaley_Bridge,53.33,-1.985,SK011815
Whalley_Lancs,53.824,-2.412,SD729365
Whatstandwell,53.0832,-1.5041,SK333541
Whifflet,55.8539,-4.0188,
Whimple,50.768,-3.354,SY045973
Whinhill,55.9384,-4.7466,NS285751
Whiston,53.414,-2.796,SJ471910
Whitby,54.485,-0.615,NZ898108
White_Hart_Lane,51.605,-0.071,
White_Notley,51.839,0.596,TL789187
Whiteabbey,54.67278,-5.90444,
Whitechapel,51.519,-0.061,
Whitecraigs,55.7903,-4.3107,NS552576
Whitehaven,54.553,-3.587,NX974188
Whitehead,54.75278,-5.70944,
Whitland,51.818,-4.614,SN198165
Whitley_Bridge,53.699100,-1.158900,SE556228
Whitlocks_End,52.392,-1.852,SP102771
Whitstable,51.3576000,1.0334861,TR112664
Whittlesea,52.5493,-0.1184,TL277963
Whittlesford_Parkway,52.104,0.166,TL484472
Whitton,51.4495,-0.3578,
Whitwell,53.28000,-1.20056,SK534761
Whyteleafe,51.3098,-0.0812,
Whyteleafe_South,51.3034,-0.0768,
Wick,58.4416,-3.0975,ND360509
Wickford,51.615,0.519,TQ745936
Wickham_Market,52.1510,1.3987,TM326557
Widdrington,55.241,-1.616,NZ244941
Widnes,53.37867,-2.73374,SJ512871
Widney_Manor,52.396,-1.774,SP154775
Wigan_North_Western,53.5430,-2.6320,SD581053
Wigan_Wallgate,53.5449,-2.6339,SD581055
Wigton,54.829,-3.164,NY252488
Wildmill,51.5199,-3.5803,SS904812
Williamwood,55.7942,-4.2894,NS564580
Willington,52.854,-1.563,SK294285
Wilmcote,52.2226,-1.7559,SP167582
Wilmslow,53.327,-2.226,SJ850811
Wilnecote_(Staffordshire),52.611,-1.679,SK217014
Wimbledon_Chase,51.4095,-0.2142,
Winchelsea,50.934,0.702,TQ899183
Winchfield,51.285,-0.907,SU763545
Winchmore_Hill,51.6341,-0.1013,
Windsor_%26_Eton_Central,51.483,-0.610,SU966769
Windsor_%26_Eton_Riverside,51.4855583,-0.6064889,SU968772
Winnersh,51.430,-0.877,SU781707
Winnersh_Triangle,51.437,-0.891,SU771714
Winsford,53.191,-2.495,SJ670660
Wishaw,55.7721,-3.9261,NS792548
Witham,51.806,0.6391,TL820152
Witley,51.133,-0.646,SU948379
Witton,52.512,-1.883,SP079904
Wivelsfield,50.96389,-0.12083,TQ320200
Wivenhoe,51.857,0.956,TM112214
Woburn_Sands,52.018,-0.654,SP924363
Woking,51.318,-0.557,TQ006587
Wokingham,51.411,-0.843,SU805686
Woldingham,51.290,-0.052,TQ359563
Wolverhampton,52.5875,-2.1200,SO919988
Wolverton,52.0653,-0.80357,SP820415
Wombwell,53.5175,-1.4164,SE387024
Wood_End,52.344,-1.845,SP106718
Wood_Street,51.5864,-0.0021,
Woodbridge,52.090,1.318,TM273487
Woodgrange_Park,51.5487,0.0454,
Woodhall,55.9315,-4.6567,NS341741
Woodhouse,53.36382,-1.35753,SK428854
Woodlesford,53.7568,-1.4430,SE368290
Woodley,53.42944,-2.09278,SJ939925
Woodmansterne,51.3192,-0.1539,
Woodsmoor,53.3862,-2.14155,SJ906877
Wool,50.682,-2.221,SY845869
Woolston,50.899,-1.377,SU439112
Woolwich_Arsenal,51.490,0.069,
Woolwich_Dockyard,51.4913,0.0536,
Wootton_Wawen,52.266,-1.785,SP147631
Worcester_Foregate_Street,52.195,-2.222,SO849552
Worcester_Park,51.3812,-0.2451,
Worcester_(North)_Parkway,52.2315,-2.1920,SO870592
Worcester_(Norton)_Parkway,52.155558,-2.160873,SO890508
Worcester_Shrub_Hill,52.195,-2.209,SO858551
Workington,54.645,-3.558,NX995288
Worksop,53.311667,-1.122778,SK585797
Worle,51.3580,-2.9094,ST367624
Worplesdon,51.289,-0.583,SU989552
Worstead,52.77733,1.40274,TG296254
Worthing,50.81861,-0.37583,TQ145033
Wrabness,51.939,1.172,TM180315
Wraysbury,51.458,-0.542,TQ014742
Wrenbury,53.020,-2.596,SJ601470
Wressle,53.77292,-0.92401,SE710312
Wrexham_Central,53.0462,-2.9994,SJ333502
Wrexham_General,53.05083,-3.00139,SJ329508
Wye,51.185,0.929,TR048469
Wylam,54.975,-1.814,NZ120644
Wylde_Green,52.546,-1.831,SP114942
Wymondham,52.56484,1.11765,TG114009
Wythall,52.380,-1.866,SP092758
